시도명,시군구명,시설명,상세주소,시설면적,경도,위도,관리부서
인천광역시,계양구,서운고등학교 운동장,인천광역시 계양구 서운동   55-42,3360,126.74587,37.526514,학교장
전라남도,광양시,중동근린공원,전라남도 광양시 중동   1673,53741,127.69291,34.934176,공원관리사업소장
인천광역시,계양구,계수중학교 운동장,인천광역시 계양구 서운동   109-2,1775,126.744915,37.534947,학교장
경상남도,통영시,용남생활체육공원,경상남도 통영시 용남면 원평리 917-140,10694,128.46004,34.884093,관광개발공사 시설관리팀
경상남도,통영시,유영초등학교운동장,경상남도 통영시 북신동   106-2,2200,128.426537,34.851409,
인천광역시,계양구,살나리공원,인천광역시 계양구 서운동   185-1,1438,126.746171,37.53626,유민철
인천광역시,계양구,오조산공원,인천광역시 계양구 용종동   208,12820,126.738099,37.540588,유민철
경상북도,포항시,상도중학교 운동장,경상북도 포항시 남구 대도동   156-1,4800,129.361372,36.014684,조상수
경상북도,포항시,포항종합운동장,경상북도 포항시 남구 대도동   313-1,17000,129.363494,36.008955,조상수
경상북도,포항시,장성초등학교 운동장,경상북도 포항시 북구 장성동   1344,5000,129.371848,36.06979,조상수
경상북도,청도군,청도중앙초등학교 운동장,경상북도 청도군 청도읍 원정리 530,3960,128.752174,35.647095,청도교육청
인천광역시,연수구,양지공원,인천광역시 연수구 연수동   594-1,10254,126.678693,37.415134,
제주특별자치도,서귀포시,하원초등학교 운동장,제주특별자치도 서귀포시 하원동   323-1,5310,126.459585,33.252843,
제주특별자치도,서귀포시,서호초등학교 운동장,제주특별자치도 서귀포시 호근동   1421-5,24564,126.529319,33.253657,
인천광역시,미추홀구,인천기계공업고등학교운동장,인천광역시 미추홀구 주안동   638-1,6458,126.668634,37.455676,
인천광역시,미추홀구,인천주안북초등학교운동장,인천광역시 미추홀구 주안동   14-1,1113,126.678143,37.467968,
인천광역시,서구,서곶중학교 운동장,인천광역시 서구 연희동   734-2,3037,126.671173,37.54918,학교장
인천광역시,서구,주물공단공원,인천광역시 서구 경서동   678,10361,126.639548,37.555644,서구청장
경상남도,통영시,충렬초등학교운동장,경상남도 통영시 명정동   173,3060,128.416218,34.847294,
경상남도,통영시,통영중학교운동장,경상남도 통영시 봉평동   196,9940,128.416243,34.828707,김철호
전라남도,구례군,용방초등학교 운동장,전라남도 구례군 용방면 용정리 199-2,5800,127.433306,35.250571,
인천광역시,계양구,효성고등학교  운동장,인천광역시 계양구 효성동   13-1,2860,126.715232,37.531817,학교장
인천광역시,계양구,효성동초등학교 운동장,인천광역시 계양구 효성동   1-4,3760,126.716456,37.532897,학교장
전라남도,여수시,부영여자고등학교 운동장,전라남도 여수시 안산동   657-1,968,127.651668,34.758801,김혜영
경상남도,의령군,용덕면공설운동장,경상남도 의령군 용덕면 가락리 189-5,5795,128.27129,35.341376,조재건
경상남도,의령군,유곡초등학교 운동장,경상남도 의령군 유곡면 칠곡리 330,3950,128.31385,35.433774,이권희
경상남도,의령군,화정초등학교 운동장,경상남도 의령군 화정면 상정리 642-1,2280,128.211378,35.276251,정슬기
경기도,오산시,원동초등학교,경기도 오산시 원동   805,1440,127.069758,37.135244,백삼식
경상북도,포항시,형산강변체육공원,경상북도 포항시 남구 해도동   119-1,20000,129.373637,36.016833,조상수
경상북도,포항시,송도중학교 운동장,경상북도 포항시 남구 송도동   492-1,4000,129.377289,36.028653,조상수
경상북도,포항시,송도초등학교 운동장,경상북도 포항시 남구 송도동   산24-38,4800,129.380668,36.032362,조상수
경상북도,포항시,기북초등학교 운동장,경상북도 포항시 북구 기북면 용기리 126-8,2000,129.167659,36.128997,조상수
경기도,안산시,와동초등학교 운동장,경기도 안산시 단원구 와동   704,4586,126.831238,37.336718,
경기도,안산시,덕성초등학교 운동장,경기도 안산시 단원구 고잔동   676-1,7498,126.836799,37.327508,
경기도,안산시,관산초등학교 운동장,경기도 안산시 단원구 초지동   603,7721,126.806797,37.328366,
경기도,안산시,안산진흥초등학교 운동장,경기도 안산시 단원구 고잔동   712-1,3692,126.822242,37.312106,
경상북도,경주시,서라벌여자중학교 운동장,경상북도 경주시 황성동   1053-18,8217,129.217055,35.854839,
경상북도,경주시,신라공업고등학교 운동장,경상북도 경주시 천북면 신당리 1084,15507,129.242152,35.893183,
경상북도,경주시,아화중학교 운동장,경상북도 경주시 서면 아화리 123,2304,129.047292,35.899693,
경상북도,경주시,서면사무소 주차장,경상북도 경주시 서면 아화리 359-2,2215,129.052488,35.891418,
경상북도,경주시,의곡초등학교 우라분교 운동장,경상북도 경주시 산내면 우라리 939-2,5414,129.013173,35.812488,
경상북도,경주시,의곡초등학교 일부분교 운동장 ,경상북도 경주시 산내면 일부리 748,5539,129.015441,35.720831,
경상북도,경주시,내남초등학교 운동장,경상북도 경주시 내남면 부지리 431-1,2164,129.1956,35.764799,
인천광역시,서구,간재울초등학교 운동장,인천광역시 서구 검암동   629-3,1949,126.672438,37.560311,학교장
인천광역시,서구,금곡초등학교 운동장,인천광역시 서구 금곡동   721-1,3287,126.650941,37.605416,학교장
인천광역시,동구,동산고등학교 운동장,인천광역시 동구 송림동   97-1,5000,126.648339,37.473597,
경기도,안산시,사리운동장,경기도 안산시 상록구 본오동   968-0,4831,126.856707,37.284835,
경기도,안산시,반월초등학교 운동장,경기도 안산시 상록구 건건동   629,4205,126.901506,37.305417,
경기도,안산시,서울예술대학교 운동장,경기도 안산시 단원구 고잔동   640,6059,126.837958,37.332713,
경기도,안산시,신길중학교 운동장,경기도 안산시 단원구 신길동   1549,3791,126.787676,37.337016,
경기도,안산시,부부로주차장,경기도 안산시 단원구 원곡동   991-1,7869,126.790141,37.332134,
경기도,안산시,별망초등학교 운동장,경기도 안산시 단원구 초지동   739-1,2968,126.813546,37.30442,
경기도,안산시,초지초등학교 운동장,경기도 안산시 단원구 초지동   724-1,4650,126.814306,37.312519,
경기도,안산시,별망중학교 운동장,경기도 안산시 단원구 초지동   739-2,4001,126.812184,37.304494,
인천광역시,서구,봉화초등학교 운동장,인천광역시 서구 가좌동   147,1772,126.67029,37.49527,학교장
대전광역시,동구,천동초등학교 운동장,대전광역시 동구 천동   214-1,3090,127.445485,36.316341,이용휘
대전광역시,동구,판암초등학교 운동장,대전광역시 동구 판암동   334-1,12199,127.460739,36.315552,송선희
전라남도,여수시,남초등학교 운동장,전라남도 여수시 국동   513,5626,127.719976,34.73101,김경호
전라남도,여수시,여수문수중학교 운동장,전라남도 여수시 문수동   171,7975,127.700182,34.753531,최경룡
경상남도,의령군,가례초등학교 운동장,경상남도 의령군 가례면 수성리 199-2,2500,128.246513,35.333172,지찬수
경상북도,포항시,양포초등학교 운동장,경상북도 포항시 남구 장기면 양포리 487-18,3000,129.513223,35.876202,조상수
전라남도,광양시,칠성초등학교 운동장,전라남도 광양시 광양읍 칠성리 1006,2700,127.578845,34.979019,
인천광역시,계양구,양지말공원,인천광역시 계양구 동양동   592,6271,126.754155,37.563843,유민철
경상남도,통영시,통영여자고등학교운동장,경상남도 통영시 도천동   121,2960,128.410825,34.840058,
경상북도,포항시,두호남부초등학교 운동장,경상북도 포항시 북구 두호동   919-9,3200,129.373828,36.061554,조상수
인천광역시,미추홀구,인천주안남초등학교운동장,인천광역시 미추홀구 주안동   1503,6728,126.685415,37.450076,
인천광역시,미추홀구,인천대제물포캠퍼스대운동장,인천광역시 미추홀구 도화동   20-6,25392,126.653723,37.474929,
경기도,안산시,시곡초등학교 운동장,경기도 안산시 상록구 사동   1344-2,6058,126.852474,37.288744,
경기도,안산시,안산초등학교 운동장,경기도 안산시 상록구 수암동   177,5283,126.878173,37.364681,
경상북도,안동시,영명학교 운동장,경상북도 안동시 북후면 오산리 500-1,1327,128.709566,36.621004,
경상북도,안동시,길안중학교 운동장,경상북도 안동시 길안면 천지리 731-1,9812,128.894342,36.458614,
경상북도,경주시,경주여자고등학교 운동장,경상북도 경주시 성건동   620-118,13269,129.205907,35.857416,
경상북도,경주시,옥산초등학교 운동장,경상북도 경주시 안강읍 옥산리 1116,2128,129.169231,35.995241,
경기도,파주시,지산초등학교 운동장,경기도 파주시 와동동   1339-5,2655,126.761731,37.730863,
경상북도,군위군,소보면복지회관,경상북도 군위군 소보면 송원리 682,345,128.477431,36.256594,
인천광역시,서구,불로중학교 운동장,인천광역시 서구 불로동   306-22,2374,126.695992,37.615501,학교장
인천광역시,서구,갈매공원,인천광역시 서구 공촌동   304,1177,126.684818,37.552776,서구청장
충청북도,옥천군,삼양초등학교 운동장,충청북도 옥천군 옥천읍 마암리 5-1,9850,127.568925,36.297428,
충청북도,옥천군,옥천여자중학교 운동장,충청북도 옥천군 옥천읍 문정리 455-2,5430,127.57271,36.304088,
경기도,오산시,죽미체육공원 다목적구장,경기도 오산시 세교동   619,3975,127.04527,37.180673,김종수
경기도,오산시,고현초등학교,경기도 오산시 고현동   92,1406,127.085574,37.133456,조계태
경기도,오산시,매홀초등학교,경기도 오산시 수청동   534-1,7423,127.063592,37.162453,유재은
경상북도,포항시,월포초등학교 운동장,경상북도 포항시 북구 청하면 월포리 306,2700,129.367974,36.203189,조상수
경상북도,포항시,(구)포항중앙초등학교 운동장,경상북도 포항시 북구 동빈1가   90-0,5300,129.368515,36.043652,조상수
인천광역시,연수구,솔밭 공원,인천광역시 연수구 연수동   582-1,19984,126.690311,37.416339,
제주특별자치도,서귀포시,새서귀초등학교 운동장,제주특별자치도 서귀포시 서호동   1451,16759,126.513179,33.256409,
제주특별자치도,서귀포시,남주고등학교 운동장,제주특별자치도 서귀포시 동홍동   1907,1200,126.564511,33.275606,
제주특별자치도,서귀포시,토평초등학교 운동장,제주특별자치도 서귀포시 토평동   1210-1,500,126.5896,33.265886,
제주특별자치도,서귀포시,효돈중학교 운동장,제주특별자치도 서귀포시 하효동   15-1,2402,126.620636,33.265315,
제주특별자치도,서귀포시,풍천초등학교 운동장,제주특별자치도 서귀포시 성산읍 신천리 603,8800,126.850159,33.348835,
제주특별자치도,서귀포시,신풍레포츠공원,제주특별자치도 서귀포시 성산읍 신풍리 1567,32922,126.816061,33.37894,
인천광역시,미추홀구,선인고등학교운동장,인천광역시 미추홀구 도화동   20-6,6917,126.653723,37.474929,
인천광역시,미추홀구,석바위근린공원,인천광역시 미추홀구 주안동   1578,32902,126.693943,37.454023,
경상북도,영덕군,강구면 삼사공원-2(삼사지구),경상북도 영덕군 강구면 삼사리 167,13645,129.384776,36.348881,안전재난건설과 재해복구담당 이수현
인천광역시,서구,가좌초등학교 운동장,인천광역시 서구 가좌동   30-87,2644,126.684179,37.490162,학교장
인천광역시,서구,서곶초등학교 운동장,인천광역시 서구 연희동   745-1,2833,126.669876,37.54795,학교장
인천광역시,옹진군,공원,인천광역시 옹진군 북도면 모도리 80-1,2240,126.411235,37.534422,안지홍
경상남도,사천시,남양중학교 운동장,경상남도 사천시 송포동   281,2590,128.062632,34.968969,
경상남도,통영시,이순신공원,경상남도 통영시 정량동   683,950000,128.442235,34.844523,공원녹지과
경상남도,통영시,벽방초등학교운동장,경상남도 통영시 광도면 안정리 1058,1820,128.410457,34.948391,서영우
경상남도,통영시,사량중학교운동장,경상남도 통영시 사량면 금평리 107,2890,128.22,34.844338,송길훈
인천광역시,계양구,낙원공원,인천광역시 계양구 임학동   25,630,126.737541,37.546505,유민철
경상남도,통영시,통영공설운동장,경상남도 통영시 북신동   77-2,15400,128.430452,34.851458,체육지원과
인천광역시,계양구,동양택지1공원,인천광역시 계양구 동양동   575-1,1105,126.753399,37.559163,유민철
인천광역시,계양구,동산공원,인천광역시 계양구 장기동   131,3392,126.730642,37.579427,유민철
인천광역시,계양구,장기공원,인천광역시 계양구 장기동   124,1179,126.731429,37.577684,유민철
경상남도,통영시,충무초등학교운동장,경상남도 통영시 정량동   232,1880,128.430418,34.84787,
인천광역시,계양구,당산초등학교 운동장,인천광역시 계양구 동양동   583-0,2472,126.759341,37.558525,학교장
전라남도,여수시,중앙초등학교 운동장,전라남도 여수시 종화동   943,777,127.74426,34.740944,오후미
대전광역시,동구,명석고등학교 운동장,대전광역시 동구 가양동   116,536,127.454616,36.352476,김상수
대전광역시,동구,용전초등학교 운동장,대전광역시 동구 용전동   40-2,7445,127.430072,36.356211,유인재
대전광역시,동구,대전성남초등학교 운동장,대전광역시 동구 성남동   193-5,3090,127.429648,36.343273,정순영
대전광역시,동구,현암초등학교 운동장,대전광역시 동구 삼성동   353-1,2800,127.420628,36.341751,조남수
경상남도,의령군,의령여자중고등학교 운동장,경상남도 의령군 가례면 가례리 265-1,3000,128.245126,35.323562,지찬수
전라남도,여수시,여수서초등학교 운동장,전라남도 여수시 서교동   898,7700,127.724961,34.741383,정유진
경상남도,의령군,지정초등학교 운동장,경상남도 의령군 지정면 봉곡리 775-1,2385,128.387782,35.383031,홍배근
경기도,오산시,화성초등학교,경기도 오산시 수청동   47-1,6374,127.068927,37.16464,임희경
경상북도,포항시,구룡포중학교(포항과학기술고등학교) 운동장,경상북도 포항시 남구 구룡포읍 구룡포리 199-30,3500,129.565783,35.991832,조상수
충청북도,음성군,소이면사무소 광장,충청북도 음성군 소이면 대장리 145-3,5409,127.757621,36.923468,이정섭
충청북도,음성군,원남초등학교 운동장,충청북도 음성군 원남면 보룡리 371-1,570,127.653827,36.878658,양철기
경상남도,함양군,함양중학교 운동장,경상남도 함양군 함양읍 교산리 217,11200,127.730437,35.524918,김주안
경상남도,함양군,함양초등학교 운동장,경상남도 함양군 함양읍 운림리 27-1,6919,127.725903,35.521035,김주안
경상북도,의성군,의성군공설운동장,경상북도 의성군 의성읍 중리리 516,30903,128.702527,36.355938,054-830-5032
강원도,삼척시,진주초등학교 운동장,강원도 삼척시 남양동   178,5200,129.164839,37.433738,정원교
대전광역시,유성구,두리초등학교 운동장,대전광역시 유성구 송강동   162,1377,127.381983,36.428858,정성희
전라남도,순천시,순천이수초등학교 운동장,전라남도 순천시 조례동   1283,1350,127.511865,34.949992,
인천광역시,서구,석남초등학교 운동장,인천광역시 서구 석남동   109-32,3257,126.680298,37.510145,학교장
경상남도,사천시,서포초등학교 운동장,경상남도 사천시 서포면 구평리 653,1058,127.977067,35.00853,
전라남도,구례군,광의초등학교 운동장,전라남도 구례군 광의면 연파리 318-1,5600,127.443921,35.259089,
전라남도,구례군,구례고등학교 운동장,전라남도 구례군 구례읍 봉남리 54,2300,127.463316,35.204447,
인천광역시,계양구,중앙공원,인천광역시 계양구 장기동   136,1670,126.734351,37.577709,유민철
인천광역시,계양구,모텡이공원,인천광역시 계양구 동양동   607,1147,126.75457,37.561711,유민철
인천광역시,계양구,계산1공원,인천광역시 계양구 계산동   944-20,838,126.723728,37.542765,유민철
인천광역시,계양구,된밭공원,인천광역시 계양구 작전동   88,8159,126.729296,37.532749,유민철
인천광역시,계양구,계산체육공원,인천광역시 계양구 계산동   907-1,15596,126.729585,37.544938,유민철
전라남도,광양시,봉강초등학교 운동장,전라남도 광양시 봉강면 봉당리 468-2,4695,127.581428,35.01215,봉강초등학교장
인천광역시,계양구,명현초등학교 운동장,인천광역시 계양구 효성동   15-3,1156,126.712613,37.531803,학교장
인천광역시,계양구,서운중학교 운동장,인천광역시 계양구 서운동   55-146,3308,126.744421,37.526084,학교장
인천광역시,계양구,효성남초등학교 운동장,인천광역시 계양구 효성동   276,2269,126.716162,37.528381,학교장
전라남도,여수시,여문공원,전라남도 여수시 문수동   126-0,41830,127.701284,34.752845,최경룡
경상남도,함양군,위성초등학교 운동장,경상남도 함양군 함양읍 교산리 201,5850,127.732624,35.523547,김주안
경상북도,포항시,오천중고등학교 운동장,경상북도 포항시 남구 오천읍 용덕리 267-0,7600,129.413392,35.968888,조상수
인천광역시,옹진군,답동종합운동장,인천광역시 옹진군 대청면 대청리 421-1,5040,124.716955,37.83202,정광용
충청북도,음성군,충북반도체고 운동장,충청북도 음성군 금왕읍 금석리 103,1059,127.606066,36.99457,김민환
경상북도,포항시,신광초등학교 운동장,경상북도 포항시 북구 신광면 토성리 483-0,4000,129.262171,36.129241,조상수
경상북도,포항시,포항동부초등학교 운동장,경상북도 포항시 북구 두호동   336-0,5200,129.380303,36.062634,조상수
대전광역시,동구,가양초등학교 운동장,대전광역시 동구 가양동   340-17,875.55,127.440263,36.342377,라기선
전라남도,여수시,부영초등학교 운동장,전라남도 여수시 여서동   592,4262,127.700338,34.745513,김준호
전라남도,여수시,여천고등학교 운동장,전라남도 여수시 선원동   54,26833,127.661611,34.771109,방성은
전라남도,광양시,철조각공원,전라남도 광양시 금호동   716,18620,127.731927,34.940286,포스코 후생팀 이광용
경상남도,함양군,안의고등학교 운동장,경상남도 함양군 안의면 석천리 90-0,539,127.818545,35.630762,김주안
인천광역시,연수구,선학 공원,인천광역시 연수구 선학동   359-0,9132,126.699219,37.424148,심광섭
인천광역시,연수구,체육공원,인천광역시 연수구 연수동   636,20000,126.68601,37.409389,정은진
제주특별자치도,서귀포시,성산중학교 운동장,제주특별자치도 서귀포시 성산읍 고성리 1027,9985,126.910431,33.443549,
제주특별자치도,서귀포시,성산고등학교 운동장,제주특별자치도 서귀포시 성산읍 오조리 360,20602,126.915412,33.469647,
인천광역시,동구,만석초등학교 운동장,인천광역시 동구 화수동   11-6,2902,126.628143,37.484183,
인천광역시,남동구,동인천중학교 운동장,인천광역시 남동구 구월동   1089-1,15758,126.696983,37.454543,학교장
인천광역시,남동구,만월중학교 운동장,인천광역시 남동구 서창동   658,3510,126.752228,37.42619,학교장
경상북도,안동시,풍산초등학교 운동장,경상북도 안동시 풍산읍 하리리 247,4206,128.574219,36.576542,
인천광역시,부평구,부평북초등학교 운동장,인천광역시 부평구 갈산동   10-1,1980,126.729536,37.52057,부평북초등학교장
인천광역시,부평구,부평공업고등학교 운동장,인천광역시 부평구 갈산동   360-2,2700,126.726933,37.512353,부평공업고등학교장
전라남도,나주시,빛가람초등학교 운동장,전라남도 나주시 빛가람동   625,2652,126.785607,35.008124,김석배
인천광역시,옹진군,소청분교운동장,인천광역시 옹진군 대청면 소청리 454-1,1444,124.753961,37.77374,강태철
인천광역시,서구,석남서초등학교 운동장,인천광역시 서구 석남동   580,3130,126.670887,37.499773,학교장
인천광역시,서구,심곡초등학교 운동장,인천광역시 서구 심곡동   291-8,1479,126.682563,37.543427,학교장
전라남도,나주시,영산포여자중학교 운동장,전라남도 나주시 이창동   136,5660,126.711739,34.996833,이정석
경상남도,통영시,도산중학교운동장,경상남도 통영시 도산면 법송리 1042,4000,128.361781,34.903993,이영수
인천광역시,계양구,은행공원,인천광역시 계양구 계산동   1084-1,1751,126.7393,37.537426,유민철
인천광역시,계양구,서녘공원,인천광역시 계양구 동양동   620-2,1062,126.757763,37.560861,유민철
인천광역시,계양구,작전공원 2,인천광역시 계양구 작전동   902,5221,126.735305,37.531069,유민철
인천광역시,계양구,북인천여자중학교 운동장,인천광역시 계양구 효성동   551,6630,126.701082,37.526693,학교장
인천광역시,계양구,서운초등학교 운동장,인천광역시 계양구 서운동   55-133,2822,126.744455,37.526894,학교장
전라남도,광양시,다압초등학교 운동장,전라남도 광양시 다압면 고사리 1106,1581,127.691861,35.120641,다압초등학교장
전라남도,여수시,나진초등학교 운동장,전라남도 여수시 화양면 나진리 463,3778,127.612234,34.708687,위성현
경상남도,의령군,칠곡초등학교 운동장,경상남도 의령군 칠곡면 외조리 85-1,3340,128.19547,35.340778,강동국
경상북도,포항시,유강초등학교 운동장,경상북도 포항시 남구 연일읍 유강리 582-0,4400,129.314572,36.003817,조상수
경상북도,군위군,송원초등학교 운동장,경상북도 군위군 소보면 송원리 675,1818,128.476361,36.25369,
충청북도,음성군,음성여자중학교 운동장,충청북도 음성군 음성읍 평곡리 830-3,12000,127.69909,36.927455,한남수
경상북도,포항시,환호공원,경상북도 포항시 북구 환호동   323-3,30000,129.395345,36.067956,조상수
제주특별자치도,서귀포시,걸매생태공원,제주특별자치도 서귀포시 서홍동   470,22615,126.554878,33.249807,
제주특별자치도,서귀포시,중문중학교 운동장,제주특별자치도 서귀포시 중문동   1935,8031,126.429044,33.250581,
제주특별자치도,서귀포시,산업과학고 운동장,제주특별자치도 서귀포시 상효동   1237-1,10827,126.595939,33.297804,
제주특별자치도,서귀포시,시흥초등학교 운동장,제주특별자치도 서귀포시 성산읍 시흥리 1214-4,6979,126.895439,33.479181,
경기도,안산시,석호중학교 운동장,경기도 안산시 상록구 사동   541-1,2927,126.851769,37.300042,
경상북도,안동시,북후초등학교 운동장,경상북도 안동시 북후면 장기리 679,4417,128.696839,36.67601,
경상북도,영덕군,"강구면 강구초등학교 운동장(오포2,3지구)",경상북도 영덕군 강구면 오포리 599-2,6856,129.379623,36.356652,안전재난건설과 재해복구담당 이수현
경상북도,영덕군,해맞이 휴게 주유소,경상북도 영덕군 병곡면 금곡리 10,2679,129.421484,36.643443,안전재난건설과 재해복구담당 김경호
인천광역시,서구,석남체육공원,인천광역시 서구 석남동   483,7616,126.675012,37.510393,서구청장
인천광역시,옹진군,체육시설,인천광역시 옹진군 덕적면 서포리 226-1,6636,126.118146,37.222479,전정현
인천광역시,서구,건지초등학교 운동장,인천광역시 서구 가좌동   200,3322,126.677971,37.49497,학교장
경기도,안산시,양지중학교 운동장,경기도 안산시 단원구 고잔동   781-2,4835,126.833245,37.30482,
경상남도,사천시,곤명초등학교 운동장,경상남도 사천시 곤명면 정곡리 848-1,807,127.938405,35.109638,
경상북도,경주시,외동읍사무소 주차장,경상북도 경주시 외동읍 입실리 525,3026,129.327577,35.717381,
경상북도,경주시,효청보건고등학교 운동장,경상북도 경주시 외동읍 모화리 162,7800,129.341564,35.671642,
전라남도,나주시,나주실내체육관 주차장,전라남도 나주시 송월동   1107-1,3300,126.712435,35.012354,이상귀
경상남도,사천시,대방초등학교 운동장,경상남도 사천시 서동   76,1289,128.06552,34.931331,
경상남도,사천시,삼천포제일중학교 운동장,경상남도 사천시 용강동   505-1,2605,128.085831,34.94837,
경상남도,사천시,용산초등학교 운동장,경상남도 사천시 봉남동   479,800,128.098766,34.943031,
경상남도,통영시,충무여자중학교운동장,경상남도 통영시 인평동   385,4500,128.395621,34.841209,
경상남도,통영시,통영고등학교운동장,경상남도 통영시 봉평동   130,7980,128.417111,34.830053,정종현
인천광역시,계양구,계산4공원,인천광역시 계양구 계산동   1068-1,1500,126.733359,37.537887,유민철
인천광역시,계양구,서운공원,인천광역시 계양구 작전동   915-2,8975,126.740989,37.528038,유민철
인천광역시,계양구,계산중학교 운동장,인천광역시 계양구 계산동   1085-4,6224,126.74255,37.534223,학교장
인천광역시,계양구,효성중학교 운동장,인천광역시 계양구 효성동   28-43,2956,126.710787,37.53738,학교장
전라남도,광양시,성황초등학교 운동장,전라남도 광양시 성황동   342,3933,127.682678,34.940246,성황초등학교장
전라남도,여수시,신풍초등학교 운동장,전라남도 여수시 율촌면 신풍리 1006-0,6900,127.610126,34.843956,김용환
전라남도,여수시,거문중학교 운동장,전라남도 여수시 삼산면 덕촌리 811,560,127.303078,34.02478,김인성
대전광역시,동구,대동초등학교 운동장,대전광역시 동구 대동   198-10,10754,127.446912,36.325182,정헌권
전라남도,여수시,여수동초등학교 운동장,전라남도 여수시 공화동   1181,8188,127.740808,34.746984,문재동
전라남도,여수시,여수진남초등학교 운동장,전라남도 여수시 광무동   819,12084,127.726905,34.751827,오승룡
경상남도,함양군,마천초등학교 운동장,경상남도 함양군 마천면 덕전리 86-4,2530,127.659256,35.386292,김주안
경상남도,함양군,유림초등학교 운동장,경상남도 함양군 유림면 화촌리 472,2950,127.792654,35.471794,김주안
경상북도,포항시,기계초등학교 운동장,경상북도 포항시 북구 기계면 현내리 842-2,6800,129.203597,36.071717,조상수
경상북도,포항시,포항해양과학고등학교 운동장,경상북도 포항시 북구 여남동   390,8300,129.40592,36.074957,조상수
제주특별자치도,서귀포시,서귀포고등학교 운동장,제주특별자치도 서귀포시 동홍동   1460-6,878,126.562416,33.257317,
인천광역시,동구,창영초등학교 운동장,인천광역시 동구 창영동   30,1417,126.639373,37.471532,
인천광역시,동구,서흥초등학교 운동장,인천광역시 동구 송림동   34-1,1972,126.64468,37.479331,
경기도,안산시,구룡운동장,경기도 안산시 상록구 이동   609-3,3150,126.860853,37.307924,
경기도,안산시,초당초등학교 운동장,경기도 안산시 상록구 사동   1389,4103,126.851149,37.285384,
경기도,안산시,한양대학교 정문주차장,경기도 안산시 상록구 사동   1271,20869,126.835387,37.296672,
경기도,안산시,본원초등학교 운동장,경기도 안산시 상록구 본오동   902,7665,126.861982,37.291171,
경기도,안산시,안산부곡초등학교 운동장,경기도 안산시 상록구 부곡동   680,6400,126.860154,37.329038,
인천광역시,옹진군,자월분교운동장,인천광역시 옹진군 자월면 자월리 1116-2,2641,126.306223,37.253291,
인천광역시,옹진군,선재초운동장,인천광역시 옹진군 영흥면 선재리 3,1750,126.534148,37.237876,김선주
경기도,안산시,슬기초등학교 운동장,경기도 안산시 단원구 고잔동   720-1,3389,126.82597,37.305344,
경상북도,경주시,경주초등학교 운동장,경상북도 경주시 충효동   3012,11733,129.189556,35.842373,
경상북도,경주시,선덕여자중학교 운동장,경상북도 경주시 인왕동   571-1,13015,129.223769,35.837971,
경상남도,통영시,충무중학교운동장,경상남도 통영시 인평동   386-3,4300,128.396515,34.840491,
인천광역시,계양구,샘터공원,인천광역시 계양구 귤현동   509-5,1120,126.745517,37.567869,유민철
경상북도,경주시,입실초등학교 운동장,경상북도 경주시 외동읍 입실리 1039,6209,129.324655,35.716631,
경상북도,안동시,남선초등학교 운동장,경상북도 안동시 남선면 구미리 146,3364,128.768956,36.524485,
경상북도,경주시,불국사초등학교 운동장,경상북도 경주시 구정동   392-2,4997,129.301336,35.777961,
경상북도,경주시,용강초등학교 운동장,경상북도 경주시 용강동   1293,6834,129.229323,35.875758,
경상북도,경주시,천북초등학교 운동장,경상북도 경주시 천북면 동산리 434,1484,129.267653,35.896722,
경상북도,경주시,모아초등학교 모서분교 운동장,경상북도 경주시 강동면 모서리 529,741,129.25301,35.95026,
인천광역시,서구,불로초등학교 운동장,인천광역시 서구 불로동   799-2,2962,126.688596,37.614401,학교장
인천광역시,서구,중동공원,인천광역시 서구 검암동   613-5,2957,126.677138,37.564903,서구청장
경상북도,경주시,의곡초등학교 운동장,경상북도 경주시 산내면 의곡리 89-14,2063,129.047415,35.7551,
경상북도,경주시,외동중학교 운동장,경상북도 경주시 외동읍 입실리 443-1,4958,129.325258,35.717059,
경상북도,경주시,천포초등학교 운동장,경상북도 경주시 건천읍 천포리 721,2194,129.094669,35.845493,
경상북도,경주시,산대초등학교 운동장,경상북도 경주시 안강읍 산대리 2387,9167,129.197654,36.002765,
인천광역시,계양구,이촌공원,인천광역시 계양구 효성동   산18-0,15967,126.712565,37.536463,유민철
전라남도,여수시,봉덕초등학교 운동장,전라남도 여수시 돌산읍 죽포리 1623,797,127.778342,34.642078,김명희
전라남도,여수시,여안초등학교 운동장,전라남도 여수시 남면 안도리 991,660,127.805547,34.485475,김수구
대전광역시,동구,한밭여자중학교 운동장,대전광역시 동구 대동   28,2528,127.44906,36.329642,류미희
대전광역시,동구,동아마이스터고등학교 운동장,대전광역시 동구 자양동   2,20974,127.453732,36.343631,최원석
전라남도,여수시,종고초등학교 운동장,전라남도 여수시 덕충동   111,8329,127.743796,34.749892,박남주
대전광역시,동구,세천초등학교 운동장,대전광역시 동구 세천동   70,5000,127.493617,36.341347,강현숙
경기도,오산시,대호초등학교,경기도 오산시 궐동   661,2064,127.057737,37.159078,최승진
경상북도,군위군,구)대율초등학교(폐교) 운동장,경상북도 군위군 부계면 대율리 644-1,1444,128.6546,36.062597,
경상북도,군위군,우보초등학교 운동장,경상북도 군위군 우보면 이화리 1566-1,1768,128.661475,36.19485,
제주특별자치도,서귀포시,칠십리시공원,제주특별자치도 서귀포시 서홍동   572-0,15480,126.553482,33.247132,
인천광역시,연수구,대학공원,인천광역시 연수구 연수동   580,103616,126.685823,37.420113,정재진
제주특별자치도,서귀포시,법환초등학교 운동장,제주특별자치도 서귀포시 법환동   1244-1,12485,126.508895,33.237676,
제주특별자치도,서귀포시,효돈초등학교 운동장,제주특별자치도 서귀포시 신효동   123-3,6030,126.616121,33.264421,
인천광역시,서구,창신초등학교 운동장,인천광역시 서구 원당동   809,1960,126.698352,37.598729,학교장
제주특별자치도,서귀포시,신산중학교 운동장,제주특별자치도 서귀포시 성산읍 신산리 963,9671,126.875613,33.381642,
인천광역시,동구,서림초등학교 운동장,인천광역시 동구 송림동   61-11,1650,126.646783,37.475253,
경상남도,사천시,축동초등학교 운동장,경상남도 사천시 축동면 배춘리 714,625,128.091043,35.107973,
경상남도,사천시,대성초등학교 운동장,경상남도 사천시 좌룡동   300-52,1712,128.078431,34.95341,
인천광역시,계양구,안남공원,인천광역시 계양구 계산동   949,1014,126.727218,37.541266,유민철
전라남도,광양시,옥룡초등학교 운동장,전라남도 광양시 옥룡면 운평리 624-4,4050,127.618255,35.015478,옥룡초등학교장
인천광역시,계양구,명현중학교 운동장,인천광역시 계양구 효성동   20,3150,126.713801,37.531822,학교장
인천광역시,계양구,안산초등학교 운동장,인천광역시 계양구 계산동   914,4690,126.732337,37.544298,학교장
대전광역시,동구,가양중학교 운동장,대전광역시 동구 가양동   36-2,11919,127.448279,36.350417,조준형
경상남도,의령군,낙서초등학교 운동장,경상남도 의령군 낙서면 정곡리 167-2,1981,128.414335,35.481599,박두승
전라남도,여수시,상암초등학교 묘도분교 운동장,전라남도 여수시 묘도동   910-1,3608,127.709427,34.875288,김지훈
경상남도,의령군,봉수초등학교 운동장,경상남도 의령군 봉수면 서암리 336,4498,128.24064,35.479,강보배
충청북도,음성군,음성고등학교 운동장,충청북도 음성군 음성읍 읍내리 503-7,17600,127.686495,36.933641,김주승
충청북도,음성군,수봉초등학교 운동장,충청북도 음성군 음성읍 읍내리 209,22940,127.692895,36.940188,한정자
충청북도,음성군,대소초등학교 운동장,충청북도 음성군 대소면 오산리 186-1,2310,127.48569,36.966956,정충선
경상북도,포항시,상대초등학교 운동장,경상북도 포항시 남구 대도동   74-1,5000,129.361893,36.0222,조상수
경상북도,포항시,포항운하부지,경상북도 포항시 남구 해도동   550-0,10000,129.373621,36.028725,조상수
경상북도,포항시,송림초등학교 운동장,경상북도 포항시 남구 송도동   471-1,3500,129.374958,36.03,조상수
경상북도,봉화군,내성천 야외공연장 및 체육공원,경상북도 봉화군 봉화읍 내성리 506,44155,128.734387,36.890341,
경상북도,청도군,청도고등학교 운동장,경상북도 청도군 청도읍 고수리 840-2,5818,128.748215,35.641018,청도교육청
경기도,안산시,성안중학교 운동장,경기도 안산시 상록구 사동   1538,3945,126.848318,37.303986,
경기도,안산시,성안초등학교 운동장,경기도 안산시 상록구 사동   1535,5467,126.853258,37.305108,
충청북도,음성군,능산보건진료소 앞,충청북도 음성군 삼성면 능산리 185-19,60,127.536682,37.038729,이경자
인천광역시,미추홀구,인하대학교대운동장,인천광역시 미추홀구 용현동   253,265190,126.654531,37.449744,
제주특별자치도,서귀포시,신산초등학교 운동장,제주특별자치도 서귀포시 성산읍 신산리 963,11178,126.875613,33.381642,
제주특별자치도,서귀포시,수산초등학교 운동장,제주특별자치도 서귀포시 성산읍 수산리 580,8490,126.885798,33.447301,
제주특별자치도,서귀포시,동남초등학교 운동장,제주특별자치도 서귀포시 성산읍 고성리 1128-1,6667,126.913807,33.448799,
경기도,안산시,팔곡초등학교 운동장,경기도 안산시 상록구 팔곡이동   385,3172,126.882977,37.297252,
인천광역시,서구,당하지구3호공원,인천광역시 서구 당하동   1099-4,1000,126.678698,37.590947,종합건설본부
인천광역시,부평구,청천중학교 운동장,인천광역시 부평구 청천동   190-58,2100,126.704948,37.511153,청천중학교장
경기도,안산시,안산중앙초등학교 운동장,경기도 안산시 단원구 고잔동   673-1,4035,126.838095,37.321333,
경상북도,영덕군,강구면 수협창고 뒤 공터(강구지구),경상북도 영덕군 강구면 강구리 52-1,148,129.38753,36.373405,안전재난건설과 재해복구담당 이수현
경기도,안산시,능길초등학교 운동장,경기도 안산시 단원구 신길동   1417-22,4639,126.764111,37.335844,
경상남도,함안군,군북고등학교 운동장,경상남도 함안군 군북면 덕대리 267,2800,128.343288,35.260148,안종식
경상남도,함안군,문암초등학교 운동장,경상남도 함안군 산인면 모곡리 510,13484,128.457663,35.27253,강순점
전라남도,해남군,서정초등학교운동장,전라남도 해남군 송지면 서정리 90,2000,126.561152,34.388979,임수정
전라남도,장흥군,유치초중학교 운동장,전라남도 장흥군 유치면 조양리 695,3300,126.835528,34.802488,양진석
전라북도,장수군,천천초등학교 운동장,전라북도 장수군 천천면 춘송리 833-1,7800,127.533316,35.735614,천천초등학교장
경상남도,사천시,항공우주테마공원,경상남도 사천시 정동면 예수리 420,96824,128.085599,35.069258,
인천광역시,계양구,병방공원,인천광역시 계양구 병방동   367,1168,126.738116,37.54828,유민철
인천광역시,계양구,계양교통공원,인천광역시 계양구 계산동   1085-1,14764,126.742802,37.537456,유민철
인천광역시,계양구,세원고등학교 운동장,인천광역시 계양구 병방동   5-5,2126,126.74462,37.551483,학교장
전라남도,여수시,율촌초등학교 운동장,전라남도 여수시 율촌면 조화리 182,6260,127.576505,34.882728,김용환
대전광역시,동구,충남중학교 운동장,대전광역시 동구 신흥동   168,11185,127.444255,36.324881,김해용
전라남도,여수시,거문초등학교 운동장,전라남도 여수시 삼산면 거문리 136,420,127.312644,34.026199,김인성
대전광역시,동구,가오초등학교 운동장,대전광역시 동구 가오동   498,6709,127.458442,36.310666,박해란
대전광역시,동구,자양초등학교 운동장,대전광역시 동구 자양동   221-2,12992,127.443052,36.333063,김영희
전라남도,여수시,봉산초등학교 운동장,전라남도 여수시 봉산동   12,3899,127.727487,34.735035,이선희
전라남도,여수시,여수정보과학고등학교 운동장,전라남도 여수시 문수동   182,5993,127.69881,34.752314,최경룡
경상북도,군위군,고매초등학교 운동장,경상북도 군위군 효령면 고곡리 929,1289,128.582521,36.097029,
경상북도,군위군,군위생활체육공원,경상북도 군위군 군위읍 서부리 475-1,59800,128.561931,36.240882,
충청북도,음성군,오갑초등학교 운동장,충청북도 음성군 감곡면 오궁리 2-1,8896,127.677032,37.11211,홍성표
인천광역시,연수구,동춘공원,인천광역시 연수구 동춘동   938-2,10000,126.66979,37.408615,전명진
인천광역시,연수구,해돋이공원,인천광역시 연수구 송도동   5-1,180000,126.654498,37.387669,이세영
제주특별자치도,서귀포시,동홍초등학교 운동장,제주특별자치도 서귀포시 동홍동   614-5,4700,126.57017,33.26024,
인천광역시,미추홀구,인천비즈니스고등학교운동장,인천광역시 미추홀구 도화동   43-24,3101,126.666527,37.471892,
제주특별자치도,서귀포시,성산초등학교 운동장,제주특별자치도 서귀포시 성산읍 성산리 333,7500,126.931739,33.467954,
인천광역시,남동구,상아초등학교 운동장,인천광역시 남동구 간석동   939-4,1980,126.712236,37.457537,학교장
인천광역시,부평구,부평서여자중학교 운동장,인천광역시 부평구 십정동   186-519,2520,126.705455,37.486108,부평서여자중학교장
경상북도,안동시,서선초등학교 운동장,경상북도 안동시 풍산읍 수곡리 382,3205,128.639728,36.59073,
경상북도,안동시,와룡초등학교 운동장,경상북도 안동시 와룡면 가구리 684,3890,128.768512,36.619083,
경기도,안산시,안산강서고등학교 운동장,경기도 안산시 단원구 와동   828,7573,126.818447,37.334557,
경기도,안산시,신길초등학교 운동장,경기도 안산시 단원구 신길동   1513,5517,126.780615,37.335658,
인천광역시,동구,송현초등학교 운동장,인천광역시 동구 송현동   66-21,413,126.633439,37.481795,
경기도,안산시,안산해양중학교 운동장,경기도 안산시 상록구 사동   1512-3,3219,126.821055,37.295135,
경기도,안산시,각골초등학교 운동장,경기도 안산시 상록구 본오동   728-6,4244,126.873355,37.292816,
경기도,안산시,상록고등학교 운동장,경기도 안산시 상록구 본오동   산198-0,3421,126.874563,37.299002,
인천광역시,남동구,간석초등학교 운동장,인천광역시 남동구 구월동   6-1,6500,126.716077,37.458885,
인천광역시,부평구,부평고등학교 운동장,인천광역시 부평구 부평동   10-312,4680,126.727749,37.502284,부평고등학교장
경기도,안산시,화랑초등학교 운동장,경기도 안산시 단원구 와동   846,7373,126.81866,37.330861,
경기도,안산시,선부중학교 운동장,경기도 안산시 단원구 선부동   1138,6473,126.81449,37.344354,
제주특별자치도,서귀포시,서귀포중학교 운동장,제주특별자치도 서귀포시 서귀동   231,16150,126.570191,33.24751,
경상남도,함안군,호암초등학교 운동장,경상남도 함안군 칠원읍 오곡리 97,1741,128.520507,35.274436,박종칠
인천광역시,동구,화도진중학교 운동장,인천광역시 동구 화수동   2-5,2025,126.632313,37.484412,
대전광역시,대덕구,대전대화초등학교  운동장,대전광역시 대덕구 대화동   244-5,5376,127.411295,36.362886,나한수
경상남도,고성군,대성초등학교 운동장,경상남도 고성군 고성읍 성내리 2-9,2120,128.322765,34.975624,대성초등학교장
경상남도,고성군,철성초등학교 운동장,경상남도 고성군 고성읍 월평리 953,11798,128.342147,34.957472,철성초등학교장
대전광역시,서구,변동중학교운동장,대전광역시 서구 변동   54-1,8088,127.375892,36.324271,정정임
경상남도,고성군,상리초등학교 운동장 ,경상남도 고성군 상리면 척번정리 390,6834,128.185822,34.998842,상리초등학교장
전라남도,나주시,왕곡초등학교 운동장,전라남도 나주시 왕곡면 월천리 206,2930,126.654893,34.962799,강염임
경상남도,산청군,단성초등학교 운동장,경상남도 산청군 단성면 성내리 596-2,2580,127.956158,35.297333,문준식
광주광역시,동구,충장중학교  운동장,광주광역시 동구 산수동   552-6,5100,126.928875,35.156597,조영록
부산광역시,사하구,다대중학교운동장,부산광역시 사하구 다대동   945,6042,128.968511,35.057123,
전라북도,순창군,적성초등학교 운동장,전라북도 순창군 적성면 고원리 616,4000,127.210087,35.398447,
경기도,안산시,와동체육공원 운동장,경기도 안산시 단원구 와동   813-1,10827,126.820421,37.339926,
경상남도,하동군,양보초등학교 운동장,경상남도 하동군 양보면 운암리 251,4700,127.84918,35.044266,
경기도,안산시,고잔초등학교 운동장,경기도 안산시 단원구 고잔동   581,9354,126.82723,37.324299,
경상남도,고성군,고성중학교 삼산분교 운동장(폐교부지),경상남도 고성군 삼산면 미룡리 285,8829,128.2743,34.938369,삼산면장
전라남도,나주시,공산초등학교 운동장,전라남도 나주시 공산면 금곡리 780,4736,126.613108,34.94087,서금만
전라남도,장흥군,장흥실내체육관 공설운동장,전라남도 장흥군 장흥읍 충열리 200,1400,126.89157,34.668985,노병무
전라남도,해남군,해남군축구전용구장2,전라남도 해남군 해남읍 해리 4-8,6520,126.618956,34.568643,이종돈
강원도,강릉시,강릉초등학교 운동장,강원도 강릉시 홍제동   38,10000,128.888211,37.753454,
경기도,오산시,광성초등학교,경기도 오산시 세교동   623-0,2851,127.040173,37.183708,김성탄
경상북도,포항시,대송초등학교 운동장,경상북도 포항시 남구 대송면 제내리 974-0,6000,129.362424,35.984352,조상수
경상북도,포항시,송라초등학교 운동장,경상북도 포항시 북구 송라면 광천리 189-5,5000,129.35577,36.228922,조상수
경상북도,포항시,포항여자중학교 운동장,경상북도 포항시 북구 우현동   56,7500,129.363109,36.053457,조상수
제주특별자치도,서귀포시,강정초등학교 운동장,제주특별자치도 서귀포시 강정동   4550,4337,126.478936,33.234772,
제주특별자치도,서귀포시,도순초등학교 운동장,제주특별자치도 서귀포시 도순동   353-1,8252,126.477309,33.24711,
인천광역시,미추홀구,정석항공과학고등학교운동장,인천광역시 미추홀구 용현동   253,11866,126.654531,37.449744,
인천광역시,미추홀구,관교초등학교운동장,인천광역시 미추홀구 관교동   334,8110,126.692988,37.446021,
대전광역시,서구,가수원초등학교운동장,대전광역시 서구 가수원동   471,9914,127.353631,36.302696,조영미
경상남도,고성군,개천초등학교 운동장,경상남도 고성군 개천면 명성리 632,3738,128.260138,35.098398,개천초등학교장
경상남도,고성군,회화초등학교 운동장,경상남도 고성군 회화면 배둔리 347-11,4004,128.373662,35.061726,회화초등학교장
경상남도,고성군,거류초등학교 운동장,경상남도 고성군 거류면 당동리 66,6435,128.404287,34.993453,거류초등학교장
경상남도,남해군,해양초등학교 실외운동장,경상남도 남해군 남해읍 남변리 461-3,4384,127.896083,34.834187,박종곤
전라남도,강진군,대구초등학교 운동장,전라남도 강진군 대구면 수동리 785,4067,126.798762,34.492166,송승기
전라남도,강진군,성전초등학교 운동장,전라남도 강진군 성전면 월평리 102,5775,126.70741,34.693427,홍성식
충청남도,서천군,한산초등학교 운동장,충청남도 서천군 한산면 지현리 182-1,3057,126.804826,36.086295,
충청남도,서천군,마산초등학교 운동장,충청남도 서천군 마산면 마명리 353,3543,126.795175,36.120654,
인천광역시,서구,발산초등학교 운동장,인천광역시 서구 당하동   1038-1,1695,126.698929,37.590202,학교장
전라남도,나주시,스포츠파크체육관 운동장,전라남도 나주시 송월동   1078-2,40000,126.719142,35.010811,김정회
전라남도,나주시,나주시민회관 주차장,전라남도 나주시 남내동   27-1,1620,126.723368,35.032068,김대길
경상남도,사천시,삼천포종합운동장,경상남도 사천시 벌리동   2,18870,128.088133,34.942289,
전라남도,구례군,청천초등학교 운동장,전라남도 구례군 마산면 마산리 498-3,4000,127.487158,35.221577,
인천광역시,계양구,예일중학교 운동장,인천광역시 계양구 방축동   27-8,4209,126.740629,37.554547,학교장
인천광역시,계양구,작전여자고등학교 운동장,인천광역시 계양구 작전동   92,4305,126.730059,37.532042,학교장
전라남도,광양시,진월초등학교 운동장,전라남도 광양시 진월면 선소리 226,7816,127.759733,34.978043,진월초등학교장
경상남도,함양군,함양고등학교 운동장,경상남도 함양군 함양읍 백연리 253,3576,127.721832,35.514182,김주안
경상북도,포항시 남구,구정초등학교 운동장,경상북도 포항시 남구 오천읍 구정리 441-1,4500,129.408623,35.980608,조상수
경상북도,포항시,해도근린공원,경상북도 포항시 남구 해도동   201,17000,129.368991,36.011005,조상수
경상북도,의성군,의성초등학교운동장,경상북도 의성군 의성읍 후죽리 520,3617,128.695349,36.352316,054-830-5032
경상남도,함양군,마천중학교 운동장,경상남도 함양군 마천면 덕전리 88-1,875,127.659147,35.387158,김주안
경상남도,함양군,수동중학교 운동장,경상남도 함양군 수동면 화산리 1010,7219,127.789656,35.52381,김주안
경상남도,함양군,안의중학교 운동장,경상남도 함양군 안의면 석천리 73,12270,127.819098,35.629767,김주안
경상북도,포항시,포항이동중학교 운동장,경상북도 포항시 남구 이동   664-0,4200,129.339958,36.02984,조상수
인천광역시,연수구,문남공원,인천광역시 연수구 연수동   636,21810,126.68601,37.409389,
제주특별자치도,서귀포시,삼다체육공원,제주특별자치도 서귀포시 서호동   1602,7200,126.516677,33.252039,
인천광역시,연수구,센트럴 파크,인천광역시 연수구 송도동   24-5,200000,126.639212,37.392206,이세영
제주특별자치도,서귀포시,서귀포여자고등학교 운동장,제주특별자치도 서귀포시 호근동   1561,19174,126.531565,33.243701,
인천광역시,미추홀구,학익초등학교운동장,인천광역시 미추홀구 학익동   330-1,8254,126.658939,37.446358,
인천광역시,미추홀구,인천남부초등학교운동장,인천광역시 미추홀구 주안동   1444,4134,126.676379,37.450444,
부산광역시,북구,명진초등학교운동장,부산광역시 북구 화명동   2261,2640,129.010656,35.238467,김대규
부산광역시,사하구,보림초등학교운동장,부산광역시 사하구 장림동   1137,2945,128.967482,35.083937,
충청북도,진천군,구정초등학교 운동장,충청북도 진천군 초평면 용산리 236-1,1000,127.53519,36.780943,손미선
충청남도,서천군,서남초등학교 운동장,충청남도 서천군 마서면 봉남리 255,2345,126.679814,36.058401,
경상남도,통영시,산양중학교운동장,경상남도 통영시 산양읍 남평리 862-1,3150,128.392504,34.802443,
전라남도,구례군,토지초등학교 연곡분교 운동장,전라남도 구례군 토지면 내서리 12,1600,127.59069,35.247297,
인천광역시,계양구,계양초등학교 상야분교 운동장,인천광역시 계양구 상야동   130-1,1190,126.779934,37.579089,학교장
인천광역시,계양구,부현초등학교 운동장,인천광역시 계양구 계산동   65-4,4537,126.731477,37.53614,학교장
인천광역시,계양구,해서초등학교 운동장,인천광역시 계양구 계산동   783-5,2890,126.71771,37.539977,학교장
인천광역시,계양구,효성서초등학교 운동장,인천광역시 계양구 효성동   623-26,2182,126.698918,37.528304,학교장
전라남도,광양시,마동근린체육공원,전라남도 광양시 마동   1062,52382,127.692784,34.953541,체육과장
대전광역시,동구,한밭중학교 운동장,대전광역시 동구 삼성동   282-1,9775,127.426321,36.335337,이광우
대전광역시,동구,보문고등학교 운동장,대전광역시 동구 삼성동   283-58,13524,127.424061,36.336505,노재곤
전라남도,여수시,무선초등학교 운동장,전라남도 여수시 화장동   776,12005,127.64553,34.772204,방성은
전라남도,여수시,여도초등학교 운동장,전라남도 여수시 봉계동   37,8754,127.694404,34.785005,김진아
경상남도,의령군,궁류초등학교 운동장,경상남도 의령군 궁류면 토곡리 482-2,3004,128.246834,35.447982,김형진
경상북도,군위군,구)산성초등학교 (폐교),경상북도 군위군 산성면 화본리 868-2,3950,128.695436,36.123986,
경상북도,군위군,군위고등학교 운동장,경상북도 군위군 군위읍 정리 292-1,44183,128.570355,36.245418,
충청북도,음성군,설성공원,충청북도 음성군 음성읍 읍내리 446-1,13287,127.69098,36.932415,이소민
충청북도,음성군,남신초등학교 운동장,충청북도 음성군 음성읍 읍내리 757-6,13575,127.684232,36.932726,조원준
충청북도,음성군,오선초등학교 운동장,충청북도 음성군 금왕읍 오선리 206,12064,127.56636,36.978754,박정원
충청북도,음성군,무극초등학교 운동장,충청북도 음성군 금왕읍 무극리 86,7622,127.598892,36.991268,한백순
충청북도,음성군,동성초등학교 운동장,충청북도 음성군 맹동면 동성리 452,2600,127.543704,36.912834,이혜숙
충청북도,음성군,무극중학교 운동장,충청북도 음성군 금왕읍 무극리 23-2,5358,127.591807,36.988826,차영만
충청북도,음성군,매괴고등학교 운동장,충청북도 음성군 감곡면 왕장리 498-1,2686,127.640552,37.120614,신슬기
경상남도,고성군,종합운동장,경상남도 고성군 고성읍 기월리 611,74276,128.312081,34.981268,문화체육과장
경상남도,고성군,철성고등학교 운동장,경상남도 고성군 고성읍 기월리 143-6,9600,128.319845,34.983463,철성고등학교장
경상북도,포항시,동해면민운동장,경상북도 포항시 남구 동해면 약전리 370-1,9000,129.449668,35.990212,조상수
인천광역시,계양구,도두리공원,인천광역시 계양구 작전동   912-2,2100,126.738674,37.531161,유민철
인천광역시,계양구,안골공원,인천광역시 계양구 귤현동   486-7,1463,126.746669,37.569773,유민철
경상남도,통영시,평림생활체육공원,경상남도 통영시 평림동   471-3,40997,128.396169,34.857288,통영관광개발공사 시설관리팀
인천광역시,계양구,계산고등학교 운동장,인천광역시 계양구 계산동   907,4200,126.72971,37.54696,학교장
인천광역시,계양구,길주초등학교 운동장,인천광역시 계양구 용종동   227-1,4258,126.742666,37.541696,학교장
전라남도,광양시,옥룡북초등학교 운동장,전라남도 광양시 옥룡면 죽천리 677,2091,127.616705,35.041349,옥룡북초등학교장
전라남도,광양시,옥곡초등학교 운동장,전라남도 광양시 옥곡면 원월리 9,2274,127.695492,34.990917,
인천광역시,계양구,부현동초등학교 운동장,인천광역시 계양구 계산동   1084-4,4204,126.740591,37.534381,학교장
인천광역시,계양구,양촌초등학교 운동장,인천광역시 계양구 병방동   3,3010,126.744096,37.550656,학교장
인천광역시,계양구,화전초등학교 운동장,인천광역시 계양구 작전동   140-4,3428,126.730988,37.52856,학교장
전라남도,여수시,화태초등학교 운동장,전라남도 여수시 남면 화태리 313,8469,127.735009,34.58501,김수구
대전광역시,동구,용운초등학교 운동장,대전광역시 동구 용운동   303,4697,127.463941,36.326579,김택근
대전광역시,동구,삼성초등학교 운동장,대전광역시 동구 삼성동   113-1,7294,127.429124,36.337008,조한창
전라남도,여수시,여수북초등학교 운동장,전라남도 여수시 만흥동   313-1,6533,127.742852,34.77754,박남주
경상남도,의령군,의령공설운동장,경상남도 의령군 의령읍 동동리 821-0,5371,128.266833,35.315889,이효빈
전라남도,담양군,고서초등학교 운동장,전라남도 담양군 고서면 동운리 591-2,6760,126.973909,35.224391,박은선
전라남도,담양군,창평초등학교 운동장,전라남도 담양군 창평면 창평리 39-1,6017,127.018732,35.240487,박은선
대전광역시,서구,탄방초등학교운동장,대전광역시 서구 탄방동   814,7306,127.390943,36.345499,권미숙
광주광역시,동구,무등중학교  운동장,광주광역시 동구 소태동   625,10300,126.933902,35.124917,조영록
전라남도,광양시,덕례초등학교 운동장,전라남도 광양시 광양읍 덕례리 448,2700,127.57063,34.968621,덕례초등학교장
전라남도,광양시,옥곡중학교 운동장,전라남도 광양시 옥곡면 묵백리 74-1,8830,127.701284,34.994792,옥곡중학교장
전라남도,광양시,진상초등학교 운동장,전라남도 광양시 진상면 섬거리 553-1,4946,127.71598,35.019863,진상초등학교장
인천광역시,계양구,소양초등학교 운동장,인천광역시 계양구 박촌동   71-2,4081,126.74244,37.555971,학교장
인천광역시,계양구,신대초등학교 운동장,인천광역시 계양구 용종동   228-4,3422,126.743479,37.538862,학교장
인천광역시,계양구,안남중학교 운동장,인천광역시 계양구 계산동   58-1,4622,126.730969,37.538882,학교장
경상남도,의령군,궁류봉황대 공설운동장,경상남도 의령군 궁류면 평촌리 산61-3,4887,128.242892,35.438785,김형진
대전광역시,동구,동신중학교 운동장,대전광역시 동구 판암동   241,6327,127.459361,36.320354,최동순
경상남도,의령군,대의초등학교 운동장,경상남도 의령군 대의면 마쌍리 439-1,1400,128.108732,35.371043,문충식
경상남도,의령군,정곡초등학교 운동장,경상남도 의령군 정곡면 중교리 428-1,3900,128.324536,35.37938,이은비
전라남도,여수시,강남정공원,전라남도 여수시 돌산읍 우두리 1117-2,19793,127.749242,34.716583,김명희
경상북도,군위군,군위국민체육센터,경상북도 군위군 군위읍 동부리 155,28383,128.574348,36.237141,
경상남도,함안군,법수초등학교 운동장,경상남도 함안군 법수면 윤외리 200,14896,128.380012,35.317453,강영규
경상남도,함안군,칠원고등학교 운동장,경상남도 함안군 칠서면 무릉리 908,24284,128.507454,35.317279,정성태
충청북도,음성군,용천초등학교 운동장,충청북도 음성군 금왕읍 무극리 50,3038,127.592021,36.991071,이은미
충청남도,보령시,보령시청 테니스장 앞 공터,충청남도 보령시 명천동   269-4,3500,126.612142,36.333672,
경상남도,고성군,영오초등학교 운동장,경상남도 고성군 영오면 영대리 519,3174,128.21664,35.105701,영오초등학교장
경상남도,고성군,동해중학교 운동장,경상남도 고성군 동해면 양촌리 814,4281,128.44711,35.046027,동해중학교장
경상남도,고성군,동광초등학교 운동장,경상남도 고성군 거류면 감서리 2,2701,128.399967,35.008473,동광초등학교장
경상남도,산청군,산청중학교 운동장,경상남도 산청군 산청읍 옥산리 747-0,1339,127.871435,35.410757,문준식
광주광역시,동구,산수초등학교  운동장,광주광역시 동구 산수동   552-18,1900,126.928245,35.155975,조영록
전라북도,순창군,동계초등학교 운동장,전라북도 순창군 동계면 현포리 568,6240,127.240467,35.440382,
울산광역시,울주군,서생체육공원,울산광역시 울주군 서생면 신암리 688-1,6900,129.318773,35.349398,이정희
경상남도,남해군,미조초등학교 실외운동장,경상남도 남해군 미조면 미조리 465-1,2774,128.041503,34.715153,박기홍
경상남도,남해군,남해공설운동장,경상남도 남해군 남해읍 서변리 212,16500,127.891628,34.83413,박정민
전라남도,광양시,어울림체육관 주차장,전라남도 광양시 금호동   817,13701,127.722032,34.940204,포스코 후생팀 이광용
전라남도,여수시,시전초등학교 운동장,전라남도 여수시 신기동   136,8551,127.671962,34.756763,장규현
대전광역시,동구,계룡공업고등학교 운동장,대전광역시 동구 삼성동   104-1,7920,127.434125,36.336636,
전라남도,여수시,여천초등학교 운동장,전라남도 여수시 주삼동   793,10085,127.655241,34.788178,김진아
대전광역시,대덕구,대전송촌중학교  운동장,대전광역시 대덕구 송촌동   495-10,1911,127.443271,36.364004,나한수
경상남도,고성군,하이초등학교 운동장,경상남도 고성군 하이면 덕호리 528-1,4518,128.121601,34.929134,하이초등학교
경상남도,고성군,상리중학교 운동장(폐교부지),경상남도 고성군 상리면 척번정리 424-1,9435,128.187993,34.999769,상리면장
전라남도,나주시,다시초등학교 운동장,전라남도 나주시 다시면 월태리 521,4393,126.639984,35.017626,이현식
부산광역시,수영구,부산여자상업고등학교 운동장,부산광역시 수영구 망미동   979-15,10560,129.096531,35.168694,
경상남도,남해군,남명초등학교 실외운동장,경상남도 남해군 남면 당항리 1410,3520,127.889723,34.772333,박정민
경상남도,남해군,창선초등학교 실외운동장,경상남도 남해군 창선면 상죽리 265,7904,128.010455,34.858326,도현율
전라남도,해남군,삼산초등학교운동장,전라남도 해남군 삼산면 충리 97-4,5087,126.60778,34.515013,황현숙
전라남도,해남군,산이초등학교운동장,전라남도 해남군 산이면 초송리 593,5530,126.446872,34.643404,박관수
경상북도,봉화군,춘양초등학교,경상북도 봉화군 춘양면 의양리 341,13175,128.915057,36.939503,
충청북도,진천군,덕산중학교 운동장,충청북도 진천군 덕산면 용몽리 566,1500,127.50952,36.906508,정영순
대전광역시,유성구,구즉초등학교 운동장,대전광역시 유성구 봉산동   796-16,5114,127.382688,36.440623,이경순
전라남도,나주시,봉황초등학교 운동장,전라남도 나주시 봉황면 죽석리 771,6769,126.788642,34.957198,김용섭
경상남도,사천시,사천중학교 운동장,경상남도 사천시 사천읍 선인리 186-7,1326,128.097916,35.080471,
경상남도,사천시,정동초등학교 운동장,경상남도 사천시 정동면 대곡리 290,1082,128.124078,35.057247,
전라남도,나주시,빛누리초등학교 운동장,전라남도 나주시 빛가람동   25-0,2124,126.785299,35.030315,김대일
인천광역시,계양구,고향골공원,인천광역시 계양구 계산동   982,1040,126.719544,37.540594,유민철
경상남도,통영시,한려초등학교운동장,경상남도 통영시 도남동   483-1,2860,128.421659,34.827502,이학재
광주광역시,동구,장원초등학교  운동장,광주광역시 동구 산수동   102-0,5400,126.937728,35.15717,조영록
광주광역시,동구,동산초등학교  운동장,광주광역시 동구 지산동   231-2,3200,126.935021,35.148451,조영록
경상남도,남해군,지족초등학교 실외운동장,경상남도 남해군 삼동면 지족리 255,5478,128.000681,34.830261,김상훈
강원도,강릉시,옥계초등학교 운동장,강원도 강릉시 옥계면 현내리 344-1,10000,129.035161,37.610199,
충청북도,진천군,한천초등학교 운동장,충청북도 진천군 덕산면 용몽리 518-3,1000,127.507771,36.906679,양희석
충청남도,서천군,서천초등학교 운동장,충청남도 서천군 서천읍 군사리 724-1,2748,126.68848,36.078602,
전라남도,순천시,황전초등학교 운동장,전라남도 순천시 황전면 수평리 309-1,2220,127.430215,35.099888,
전라남도,순천시,순천별량중학교 운동장,전라남도 순천시 별량면 동송리 400,5700,127.452559,34.866261,
인천광역시,서구,신현북초등학교 운동장,인천광역시 서구 신현동   85-1,3821,126.66625,37.518429,학교장
경상남도,통영시,진남초등학교운동장,경상남도 통영시 미수동   269,2700,128.409272,34.832363,
경상남도,의령군,지정공설운동장,경상남도 의령군 지정면 봉곡리 569,8560,128.393315,35.380241,최용순
경상북도,영덕군,강구면 하저문화 마을 뒤 공터(하저지구),경상북도 영덕군 강구면 하저리 453,660,129.404589,36.389503,안전재난건설과 재해복구담당 이수현
경상남도,남해군,미조공설운동장,경상남도 남해군 미조면 송정리 1285-1,900,128.027162,34.727597,박기홍
충청남도,천안시,천안축구센터(잔디구장),충청남도 천안시 서북구 성정동   354,49564,127.146793,36.821801,
경상남도,고성군,고성동중학교 운동장,경상남도 고성군 거류면 당동리 235,5000,128.401193,34.987358,고성동중학교장
경상남도,남해군,남해초등학교 실외운동장,경상남도 남해군 남해읍 북변리 141-3,4880,127.892498,34.838946,박종곤
충청북도,음성군,생극초등학교 운동장,충청북도 음성군 생극면 신양리 451-1,8936,127.604745,37.033632,조승환
경상북도,봉화군,상운초등학교,경상북도 봉화군 상운면 가곡리 419-3,2762,128.753856,36.830012,
전라북도,장수군,계남초등학교 운동장,전라북도 장수군 계남면 화음리 948-1,4900,127.57882,35.701825,계남초등학교장
강원도,삼척시,미로중학교 운동장,강원도 삼척시 미로면 하거노리 449,6600,129.104332,37.411102,김진광 실장님
경상남도,사천시,수양초등학교 운동장,경상남도 사천시 사천읍 평화리 184-5,709,128.089874,35.078891,
경상남도,사천시,삼성초등학교 운동장,경상남도 사천시 사남면 죽천리 6-2,2582,128.074671,35.054231,
전라남도,구례군,구례북초등학교 운동장,전라남도 구례군 구례읍 봉동리 489,2000,127.460377,35.209984,
인천광역시,계양구,임학공원,인천광역시 계양구 임학동   58-0,6271,126.7329,37.548383,유민철
전라남도,구례군,중동초등학교 운동장,전라남도 구례군 산동면 관산리 631,3000,127.465195,35.318716,
인천광역시,계양구,용종공원,인천광역시 계양구 용종동   224,1124,126.742835,37.542972,유민철
인천광역시,계양구,개나리공원,인천광역시 계양구 계산동   1067-1,438,126.732642,37.538511,유민철
전라남도,구례군,구례북중학교 운동장,전라남도 구례군 용방면 신지리 802,6600,127.438671,35.258064,
인천광역시,계양구,동양택지2공원,인천광역시 계양구 동양동   582-1,1054,126.758281,37.558711,유민철
전라남도,광양시,마로초등학교 운동장,전라남도 광양시 광양읍 용강리 342,3424,127.612251,34.967727,
인천광역시,계양구,동양중학교 운동장,인천광역시 계양구 동양동   587,2492,126.760837,37.562251,학교장
인천광역시,계양구,부평초등학교 운동장,인천광역시 계양구 계산동   943,4481,126.724058,37.541965,학교장
전라남도,광양시,항만물류고등학교 운동장,전라남도 광양시 진상면 섬거리 557-38,8629,127.717514,35.017491,항만물류고등학교장
인천광역시,계양구,안남고등학교 운동장,인천광역시 계양구 작전동   392-10,4302,126.726814,37.524908,학교장
인천광역시,계양구,안남초등학교 운동장,인천광역시 계양구 계산동   34-2,3986,126.73243,37.540678,학교장
인천광역시,계양구,양촌중학교 운동장,인천광역시 계양구 병방동   12,2107,126.745021,37.55008,학교장
전라남도,여수시,백초초등학교 운동장,전라남도 여수시 돌산읍 우두리 712,497,127.744152,34.729364,김명희
전라남도,여수시,여양고등학교 운동장,전라남도 여수시 소라면 덕양리 1058-0,11916,127.631798,34.788881,윤세희
전라남도,여수시,여남중/고학교 운동장,전라남도 여수시 남면 우학리 181,10868,127.767707,34.512085,김수구
대전광역시,동구,신흥초등학교 운동장,대전광역시 동구 신흥동   150-3,6906,127.439987,36.325423,민경랑 
전라남도,광양시,태인동사무소 주차장,전라남도 광양시 태인동   398,4160,127.749527,34.943254,
전라남도,장흥군,관산초등학교 운동장,전라남도 장흥군 관산읍 옥당리 405,11639,126.940026,34.561045,변탁근
전라남도,강진군,국민체육센터 종합운동장,전라남도 강진군 군동면 호계리 1076,4778,126.781851,34.646838,윤근식
전라남도,해남군,마산초등학교운동장,전라남도 해남군 마산면 화내리 671-1,3300,126.573127,34.618441,이명현
경상북도,봉화군,소천초등학교,경상북도 봉화군 소천면 현동리 651,4955,129.002264,36.937993,
강원도,삼척시,호산초등학교 운동장,강원도 삼척시 원덕읍 호산리 347,5600,129.334536,37.177954,정봉희 주무관
전라남도,나주시,나주중앙초등학교 운동장,전라남도 나주시 성북동   13,7686,126.719408,35.038341,조영수
인천광역시,계양구,학마을공원,인천광역시 계양구 병방동   432-4,4644,126.741726,37.544105,유민철
전라북도,순창군,인계초등학교 운동장,전라북도 순창군 인계면 가성리 493,3300,127.159196,35.413998,행정실장
전라남도,강진군,칠량초등학교 운동장,전라남도 강진군 칠량면 영동리 1113-5,4508,126.8002,34.573684,조기완
충청남도,서천군,기산초등학교 운동장,충청남도 서천군 기산면 화산리 216,3346,126.767699,36.074075,
충청남도,서천군,오성초등학교 운동장,충청남도 서천군 판교면 현암리 365,2089,126.683522,36.154866,
충청남도,서천군,서도초등학교 운동장,충청남도 서천군 서면 도둔리 677-2,2142,126.521294,36.153066,
전라북도,장수군,장계초등학교 운동장,전라북도 장수군 장계면 장계리 250,5600,127.581205,35.732064,장계초등학교장
전라남도,순천시,주암초등학교 운동장,전라남도 순천시 주암면 구산리 721-0,6790,127.240169,35.076349,
전라남도,순천시,외서초등학교 운동장,전라남도 순천시 외서면 월암리 161,1510,127.273272,34.916223,
전라남도,순천시,상사초등학교 운동장,전라남도 순천시 상사면 응령리 287,3900,127.446096,34.94394,
전라남도,순천시,순천팔마체육관,전라남도 순천시 연향동   752,15100,127.519958,34.936435,
인천광역시,서구,가현초등학교 운동장,인천광역시 서구 신현동   2-103,1868,126.668454,37.522076,학교장
인천광역시,서구,단봉초등학교 운동장,인천광역시 서구 오류동   724-2,3353,126.638429,37.59832,학교장
인천광역시,옹진군,삼목초장봉분교,인천광역시 옹진군 북도면 장봉리 1050,2100,126.337283,37.533889,김순희
경상남도,의령군,정곡공설운동장,경상남도 의령군 정곡면 성황리 793,5587,128.332234,35.377131,이은비
경상남도,의령군,남산초등학교 운동장,경상남도 의령군 의령읍 동동리 1002,3719,128.267026,35.321161,이효빈
충청북도,음성군,삼성중학교 운동장,충청북도 음성군 삼성면 덕정리 431-1,10540,127.499598,37.024752,홍석중
경상북도,포항시,장기중학교 운동장,경상북도 포항시 남구 장기면 임중리 331-2,5200,129.492879,35.891793,조상수
경상북도,포항시,청하중학교 운동장,경상북도 포항시 북구 청하면 덕성리 384-1,4100,129.334887,36.194107,조상수
경상북도,포항시,경북간호고등학교 운동장,경상북도 포항시 북구 죽장면 입암리 643-8,5200,129.093605,36.1635,조상수
경상북도,포항시,포항고등학교 운동장,경상북도 포항시 북구 학산동   288,12000,129.371406,36.056372,조상수
경상북도,포항시,포항항도초등학교 운동장,경상북도 포항시 북구 학산동   174-1,4000,129.369384,36.051644,조상수
인천광역시,미추홀구,인천서화초등학교운동장,인천광역시 미추홀구 도화동   47-30,7020,126.661066,37.474088,
인천광역시,미추홀구,주안체육공원,인천광역시 미추홀구 주안동   281,5581,126.676455,37.463155,
경기도,안산시,호동초등학교 운동장,경기도 안산시 상록구 일동   601,3706,126.865362,37.312428,
경상남도,하동군,고전복지회관 주차장,경상남도 하동군 고전면 범아리 217-4,500,127.817616,35.021244,
경기도,안산시,학현초등학교 운동장,경기도 안산시 상록구 이동   665-1,3467,126.847058,37.310804,
경기도,안산시,매화초등학교 운동장,경기도 안산시 상록구 이동   608,3704,126.862713,37.306074,
경상남도,하동군,고전초등학교 운동장,경상남도 하동군 고전면 범아리 318,2260,127.818209,35.025151,
경상남도,하동군,옥종중학교 운동장,경상남도 하동군 옥종면 청룡리 227,5270,127.879057,35.178697,
대전광역시,서구,백운초등학교운동장,대전광역시 서구 괴정동   43-8,8088,127.384786,36.340662,최영식
부산광역시,사하구,사하초등학교운동장,부산광역시 사하구 괴정동   775,6017,128.987547,35.100387,
대전광역시,서구,변동초등학교운동장,대전광역시 서구 변동   36-3,5226,127.385477,36.32481,명숙희
경기도,안산시,안산청석초등학교 운동장,경기도 안산시 상록구 사동   1510-1,3080,126.818063,37.294529,
경기도,안산시,이호초등학교 운동장,경기도 안산시 상록구 본오동   958,6045,126.860455,37.286523,
경기도,안산시,상록중학교 운동장,경기도 안산시 상록구 본오동   1122,5751,126.870069,37.300013,
인천광역시,남동구,만월초등학교 운동장,인천광역시 남동구 구월동   1521-0,3544,126.715346,37.441988,
인천광역시,남동구,구월여자중학교 운동장,인천광역시 남동구 구월동   1409-1,6331,126.703215,37.448672,학교장
경상남도,의령군,용덕초등학교 운동장,경상남도 의령군 용덕면 운곡리 234-2,5596,128.290745,35.348527,조재건
경상남도,의령군,의령초등학교 운동장,경상남도 의령군 의령읍 중동리 246,1450,128.260825,35.321937,이효빈
경상남도,의령군,정곡중학교 운동장,경상남도 의령군 정곡면 중교리 513,2403,128.327749,35.381899,이은비
충청북도,음성군,평곡초등학교 운동장,충청북도 음성군 음성읍 평곡리 813,6955,127.701098,36.929189,이득희
경상북도,포항시,청룡회관 주변,경상북도 포항시 남구 동해면 임곡리 310-2,1000,129.4612,36.000207,조상수
경상북도,경주시,감포읍사무소 주차장,경상북도 경주시 감포읍 감포리 56-1,1747,129.501917,35.807271,
경상북도,포항시,인덕초등학교 운동장,경상북도 포항시 남구 인덕동   49-0,5000,129.402135,35.984336,조상수
경상북도,포항시,이동초등학교 운동장,경상북도 포항시 남구 대잠동   470-1,3300,129.343233,36.026949,조상수
경상북도,포항시,흥해남산초등학교 운동장,경상북도 포항시 북구 흥해읍 남성리 338-0,3200,129.345656,36.104762,조상수
인천광역시,연수구,솔안 공원,인천광역시 연수구 연수동   634-2,9506,126.682676,37.411875,
인천광역시,연수구,동막공원,인천광역시 연수구 동춘동   932-2,10000,126.673407,37.40363,주평호
인천광역시,동구,재능고등학교 운동장,인천광역시 동구 송림동   122-1,945,126.64985,37.475206,
인천광역시,미추홀구,쑥골어린이공원,인천광역시 미추홀구 도화동   699-14,1664,126.669619,37.471268,
인천광역시,부평구,십정녹지,인천광역시 부평구 십정동   271,4125,126.69231,37.474249,공원녹지과장
인천광역시,부평구,부원초등학교 운동장,인천광역시 부평구 부평동   65-16,2460,126.719619,37.502036,부원초등학교장
전라남도,구례군,구례중앙초등학교 운동장,전라남도 구례군 구례읍 봉남리 32-1,3800,127.465477,35.204643,
전라남도,구례군,문척초등학교 운동장,전라남도 구례군 문척면 월전리 286-1,4900,127.490634,35.191835,
인천광역시,계양구,작전중학교 운동장,인천광역시 계양구 작전동   85,3591,126.729615,37.533331,학교장
전라남도,여수시,자산공원,전라남도 여수시 종화동   3,233334,127.750396,34.739476,오후미
충청북도,음성군,부윤초등학교 운동장,충청북도 음성군 대소면 부윤리 392,13883,127.524887,36.948567,배광일
경상남도,함양군,함양여자중학교 운동장,경상남도 함양군 함양읍 교산리 956,5400,127.72537,35.523818,김주안
경상북도,포항시,오천초등학교 운동장,경상북도 포항시 남구 오천읍 용덕리 221-2,4200,129.416916,35.970059,조상수
경상남도,함양군,수동초등학교 운동장,경상남도 함양군 수동면 화산리 1097,4800,127.790831,35.522778,김주안
경상북도,포항시,용흥초등학교 운동장,경상북도 포항시 북구 용흥동   532-1,4500,129.349317,36.038854,조상수
경상북도,포항시,대도중학교 운동장,경상북도 포항시 북구 환호동   493,5400,129.396576,36.072532,조상수
인천광역시,미추홀구,용현초등학교운동장,인천광역시 미추홀구 용현동   610-108,6815,126.641479,37.453264,
인천광역시,미추홀구,인천문학초등학교운동장,인천광역시 미추홀구 문학동   343-2,6090,126.682883,37.439353,
경기도,안산시,안산대학교 운동장,경기도 안산시 상록구 일동   752,6389,126.875771,37.309274,
인천광역시,남동구,약산초등학교 운동장,인천광역시 남동구 간석동   104-1,3600,126.710095,37.467451,학교장
인천광역시,남동구,석정초등학교 운동장,인천광역시 남동구 간석동   614-5,4233,126.696277,37.467166,학교장
인천광역시,남동구,만수북초등학교 운동장,인천광역시 남동구 만수동   867-18,9925,126.728729,37.459454,학교장
인천광역시,남동구,만수초등학교 운동장,인천광역시 남동구 만수동   1074,4090,126.734504,37.447506,학교장
인천광역시,남동구,남촌초등학교 운동장,인천광역시 남동구 남촌동   556-19,3700,126.713959,37.429425,학교장
인천광역시,남동구,장도초등학교  운동장,인천광역시 남동구 논현동   600-2,2856,126.733648,37.407731,학교장
경기도,파주시,봉일천중학교 운동장,경기도 파주시 조리읍 봉일천리 257,9581,126.813315,37.74795,
인천광역시,부평구,원적산공원,인천광역시 부평구 청천동   71-12,100000,126.691426,37.513214,인천대공원사업소장
인천광역시,부평구,부평공원,인천광역시 부평구 부평동   299,55000,126.714637,37.489392,인천대공원사업소장
대전광역시,서구,도마중학교운동장,대전광역시 서구 도마동   111-3,6215,127.372115,36.318683,
경상남도,산청군,덕산중고등학교 운동장,경상남도 산청군 시천면 원리 170-0,2372,127.833682,35.275271,문준식
광주광역시,동구,중앙초등학교  운동장,광주광역시 동구 궁동   6-2,4300,126.918201,35.151215,조영록
광주광역시,동구,남초등학교  운동장,광주광역시 동구 소태동   566-2,5200,126.933002,35.126106,조영록
전라남도,장흥군,장평면민회관 공터,전라남도 장흥군 장평면 용강리 27-1,990,126.975325,34.773548,조정현
전라남도,장흥군,회진초등학교 운동장,전라남도 장흥군 회진면 회진리 738-2,4176,126.936323,34.480044,정학범
전라남도,해남군,화산초등학교운동장,전라남도 해남군 화산면 방축리 365-1,10248,126.516461,34.492108,이신영
전라남도,강진군,작천초등학교 운동장,전라남도 강진군 작천면 현산리 5,6314,126.772038,34.703076,이명식
충청남도,서천군,서천중학교 운동장,충청남도 서천군 서천읍 군사리 601,5473,126.69357,36.075239,
대전광역시,유성구,금성초등학교 운동장,대전광역시 유성구 신성동   210-12,6500,127.350004,36.388979,최영주
인천광역시,서구,백석중학교 운동장,인천광역시 서구 백석동   65-3,2646,126.674262,37.579139,학교장
인천광역시,서구,당하제1호공원,인천광역시 서구 당하동   1097-1,16934,126.673798,37.59155,종합건설본부
경상남도,사천시,사천종합운동장,경상남도 사천시 사천읍 정의리 7,21828,128.094891,35.089981,
전라남도,구례군,구례중학교 운동장,전라남도 구례군 구례읍 봉서리 1093,6000,127.463019,35.20096,
인천광역시,계양구,장터공원,인천광역시 계양구 장기동   146,1542,126.736795,37.578395,유민철
인천광역시,계양구,들놀이공원,인천광역시 계양구 귤현동   231,4400,126.751671,37.565848,유민철
경기도,남양주시,도심초등학교 운동장,경기도 남양주시 와부읍 도곡리 1051-7,4630,127.227521,37.580274,백구현
경기도,오산시,오산종합운동장,경기도 오산시 오산동   49-0,10577,127.074049,37.156854,이승환
경상북도,포항시,구룡포과메기문화관,경상북도 포항시 남구 구룡포읍 구룡포리 353-0,3000,129.561736,35.992728,조상수
경상북도,포항시,청림초등학교 운동장,경상북도 포항시 남구 청림동   934-6,5500,129.404016,35.994831,조상수
경상북도,포항시,포항제철고등학교 운동장,경상북도 포항시 남구 지곡동   477-0,8500,129.326936,36.028645,조상수
제주특별자치도,서귀포시,강정체육공원,제주특별자치도 서귀포시 강정동   2667,8172,126.48621,33.234495,
제주특별자치도,서귀포시,서귀중앙여자중학교 운동장,제주특별자치도 서귀포시 동홍동   1488-1,13000,126.56279,33.254711,
인천광역시,미추홀구,인천백학초등학교운동장,인천광역시 미추홀구 학익동   674,6500,126.672212,37.438477,
인천광역시,미추홀구,인하사대부속중고등학교운동장,인천광역시 미추홀구 학익동   306-30,20556,126.662521,37.446458,
인천광역시,미추홀구,인천대화초등학교운동장,인천광역시 미추홀구 도화동   105-11,8222,126.668504,37.468674,
경상북도,군위군,군위초등학교 운동장,경상북도 군위군 군위읍 동부리 323-2,4230,128.568784,36.238879,
경상북도,군위군,부계초등학교 운동장,경상북도 군위군 부계면 창평리 851-1,1540,128.662875,36.10161,
경상남도,함양군,금반초등학교 운동장,경상남도 함양군 휴천면 금반리 92,2900,127.737082,35.477036,김주안
인천광역시,미추홀구,용정근린공원,인천광역시 미추홀구 용현동   612-7,20498,126.641679,37.451027,
인천광역시,남동구,상인천초등학교 운동장,인천광역시 남동구 간석동   304,2956,126.706988,37.461668,학교장
인천광역시,남동구,동부초등학교 운동장,인천광역시 남동구 만수동   111-5,3080,126.727506,37.462726,학교장
인천광역시,남동구,만수북중학교 운동장,인천광역시 남동구 만수동   10,6341,126.738871,37.461367,학교장
인천광역시,남동구,조동초등학교 운동장,인천광역시 남동구 만수동   11,6564,126.739828,37.460714,학교장
인천광역시,남동구,도림초등학교 운동장,인천광역시 남동구 도림동   629-2,3822,126.731741,37.419029,학교장
인천광역시,남동구,논현초등학교 운동장,인천광역시 남동구 논현동   602-2,3368,126.731155,37.405114,학교장
경기도,안산시,시낭운동장,경기도 안산시 상록구 부곡동   719-1,23872,126.855871,37.334705,
인천광역시,부평구,부일여자중학교 운동장,인천광역시 부평구 부평동   677,2400,126.719915,37.484707,부일여자중학교장
인천광역시,부평구,부흥초등학교 운동장,인천광역시 부평구 부평동   171,2340,126.731623,37.49596,부흥초등학교장
인천광역시,부평구,산곡초등학교 운동장,인천광역시 부평구 산곡동   87-236,2880,126.701843,37.507234,산곡초등학교장
인천광역시,부평구,마곡초등학교 운동장,인천광역시 부평구 산곡동   68,2340,126.697778,37.511689,마곡초등학교
인천광역시,부평구,미산초등학교 운동장,인천광역시 부평구 산곡동   128-60,1440,126.709813,37.50452,미산초등학교장
경상남도,하동군,묵계초등학교 운동장,경상남도 하동군 청암면 묵계리 550,1300,127.734801,35.229004,
부산광역시,수영구,남천초등학교 운동장,부산광역시 수영구 남천동   69-27,2240,129.107715,35.143638,
경상북도,안동시,북후중학교 운동장,경상북도 안동시 북후면 장기리 816,6047,128.698577,36.680758,
경상남도,하동군,금남중학교 운동장,경상남도 하동군 금남면 덕천리 1241,6220,127.838722,34.986538,
경상남도,고성군,영천중학교 운동장,경상남도 고성군 영오면 영산리 250,6089,128.236095,35.108729,영천중학교장
전라남도,강진군,도암초등학교 운동장,전라남도 강진군 도암면 석문리 242,4930,126.725801,34.550852,김대진
강원도,강릉시,경포대초등학교 운동장,강원도 강릉시 안현동   106-6,11000,128.9007,37.804816,
대전광역시,유성구,수정초등학교 운동장,대전광역시 유성구 노은동   552-2,4098,127.313467,36.36589,강의순
인천광역시,서구,동인천여자중학교 운동장,인천광역시 서구 가좌동   402,2570,126.688195,37.489595,학교장
인천광역시,옹진군,시도리운동장,인천광역시 옹진군 북도면 시도리 277-7,7000,126.430836,37.533562,이현준
전라남도,나주시,영강초등학교 운동장,전라남도 나주시 삼영동   96,7550,126.712315,35.006399,양승만
전라남도,구례군,간문초등학교 운동장,전라남도 구례군 간전면 간문리 220-1,5000,127.542053,35.177184,
경상북도,포항시,구룡포초등학교 운동장,경상북도 포항시 남구 구룡포읍 구룡포리 765-1,4800,129.552301,35.990465,조상수
경상북도,포항시,포항장흥초등학교 운동장,경상북도 포항시 북구 장성동   1429-1,4200,129.393001,36.078357,조상수
경상북도,의성군,점곡초등학교운동장,경상북도 의성군 점곡면 사촌리 191-3,6700,128.761133,36.425042,054-830-5080
인천광역시,남동구,구월서초등학교 운동장,인천광역시 남동구 구월동   1099,6604,126.695765,37.452792,학교장
인천광역시,남동구,신월초등학교 운동장,인천광역시 남동구 구월동   609-1,3496,126.723651,37.447516,
인천광역시,남동구,인천예술고등학교 운동장,인천광역시 남동구 간석동   417-3,1700,126.703706,37.458722,학교장
인천광역시,남동구,인동초등학교 운동장,인천광역시 남동구 만수동   846,2500,126.722496,37.462401,학교장
인천광역시,남동구,인수초등학교 운동장,인천광역시 남동구 만수동   47,8707,126.736047,37.45389,학교장
인천광역시,남동구,남동초등학교 운동장,인천광역시 남동구 만수동   1017,4065,126.736753,37.444397,학교장
인천광역시,남동구,담방초등학교 운동장,인천광역시 남동구 만수동   1046,4212,126.736754,37.440162,학교장
부산광역시,수영구,망미초등학교 운동장,부산광역시 수영구 망미동   268-2,6605,129.114563,35.175554,
인천광역시,남동구,서창초등학교 운동장,인천광역시 남동구 서창동   560-6,4065,126.750208,37.435801,학교장
충청남도,천안시,천안오룡경기장,충청남도 천안시 동남구 원성동   31-15,33378,127.162382,36.812662,
전라남도,해남군,황산초등학교운동장,전라남도 해남군 황산면 남리리 31-8,5516,126.428228,34.576192,손희진
전라남도,해남군,옥천초등학교운동장,전라남도 해남군 옥천면 영춘리 573-1,9971,126.649707,34.567922,한운화
전라남도,강진군,옴천초등학교 운동장,전라남도 강진군 옴천면 개산리 245,2812,126.79547,34.744842,심유정
전라남도,해남군,북평초등학교운동장,전라남도 해남군 북평면 남창리 142,4006,126.631342,34.407926,박현수
충청남도,서천군,송석초등학교 운동장,충청남도 서천군 마서면 송석리 45-2,2495,126.643912,36.073297,
대전광역시,유성구,지족초등학교 운동장,대전광역시 유성구 지족동   850,4680,127.317266,36.3806,소재권
대전광역시,유성구,문지초등학교 운동장,대전광역시 유성구 문지동   285-9,3200,127.399514,36.39582,김중규
전라남도,여수시,남산초등학교 운동장,전라남도 여수시 남산동   765,1610,127.729962,34.737166,이선희
경기도,오산시,오산초등학교,경기도 오산시 가수동   76-0,10489,127.050026,37.144758,원유표
인천광역시,계양구,부일공원,인천광역시 계양구 계산동   930-1,820,126.723239,37.544792,유민철
인천광역시,서구,신석초등학교 운동장,인천광역시 서구 석남동   208-2,3205,126.664523,37.510839,학교장
인천광역시,서구,천마초등학교 운동장,인천광역시 서구 석남동   295-13,2983,126.679239,37.504795,학교장
인천광역시,서구,신현초등학교 운동장,인천광역시 서구 신현동   291,4484,126.670106,37.514253,학교장
전라남도,구례군,구례공설운동장,전라남도 구례군 구례읍 봉북리 1423-1,7200,127.46572,35.218309,
인천광역시,계양구,임학중학교 운동장,인천광역시 계양구 병방동   432-2,4015,126.740418,37.545912,학교장
전라남도,여수시,돌산공원,전라남도 여수시 돌산읍 우두리 산355-1,212700,127.741687,34.730494,김명희
충청북도,음성군,청룡초등학교 운동장,충청북도 음성군 삼성면 청용리 352-7,6880,127.472849,37.000761,박은영
경상북도,의성군,의성생활체육야구장,경상북도 의성군 의성읍 후죽리 153,8000,128.694823,36.363323,"통계연보(풍수해, 강수량) 입니다."
경상북도,포항시,석곡도서관 주차장,경상북도 포항시 남구 동해면 도구리 737-8,2000,129.437695,35.990664,조상수
경상북도,경주시,감포읍 버스공용주차장,경상북도 경주시 감포읍 감포리 436-1,2059,129.502038,35.804099,
경상북도,경주시,감포읍복지회관 주차장,경상북도 경주시 감포읍 전촌리 221,1747,129.493133,35.798691,
인천광역시,남동구,석천초등학교 운동장,인천광역시 남동구 구월동   21,6149,126.709469,37.456273,학교장
광주광역시,서구,양동초등학교  운동장,광주광역시 서구 양동   295,3236,126.898189,35.154111,노예진
전라남도,담양군,한재초등학교 운동장,전라남도 담양군 대전면 대치리 788,15133,126.889367,35.278154,박은선
인천광역시,남동구,만수여자중학교 운동장,인천광역시 남동구 만수동   27,3600,126.733031,37.459138,학교장
전라북도,부안군,부안스포츠파크 부안공설운동장,전라북도 부안군 행안면 진동리 933,8454,126.72311,35.700649,김현철
전라남도,장흥군,장흥중학교 운동장,전라남도 장흥군 장흥읍 건산리 506,10070,126.909751,34.683839,김경임
전라남도,해남군,계곡초등학교운동장,전라남도 해남군 계곡면 성진리 231-1,3430,126.656587,34.646217,신현
강원도,삼척시,하장초등학교 운동장,강원도 삼척시 하장면 광동리 76-1,2500,128.944573,37.348062,한상부
전라남도,나주시,나주초등학교 운동장,전라남도 나주시 남외동   128,5521,126.719048,35.027094,정진옥
경상남도,사천시,용현초등학교 운동장,경상남도 사천시 용현면 송지리 186,1068,128.062881,35.012875,
경상남도,사천시,신수도초등학교(삼천포초등학교 신수도 분교)운동장,경상남도 사천시 신수동   217,615,128.074867,34.903706,
인천광역시,계양구,동양공원 1,인천광역시 계양구 동양동   615-3,587,126.757916,37.561612,유민철
인천광역시,계양구,계산여자중학교 운동장,인천광역시 계양구 계산동   292,3267,126.7329,37.535854,학교장
인천광역시,계양구,계양고등학교 운동장,인천광역시 계양구 용종동   227-3,2906,126.743868,37.541621,학교장
인천광역시,계양구,북인천중학교 운동장,인천광역시 계양구 계산동   765,3154,126.717216,37.541956,학교장
전라남도,광양시,골약초등학교 운동장,전라남도 광양시 황길동   827,4554,127.660481,34.910147,골약초등학교장
경기도,오산시,양산초등학교,경기도 오산시 양산동   667-3,5525,127.032159,37.19696,류영아
경상북도,포항시,유강중학교 운동장,경상북도 포항시 남구 연일읍 유강리 143-5,2700,129.317924,36.008571,조상수
경상북도,군위군,의흥초등학교 운동장,경상북도 군위군 의흥면 읍내리 283,1553,128.718806,36.175246,
경상북도,경주시,안강운동장 축구장,경상북도 경주시 안강읍 산대리 1258,18697,129.191455,36.002578,
인천광역시,남동구,남동중학교 운동장,인천광역시 남동구 만수동   1047,2967,126.738025,37.440165,학교장
인천광역시,남동구,서창중학교 운동장,인천광역시 남동구 서창동   543-7,5140,126.749679,37.4335,학교장
인천광역시,남동구,논곡초등학교 운동장,인천광역시 남동구 논현동   563-5,6331,126.710299,37.410391,학교장
인천광역시,남동구,인천시청 운동장,인천광역시 남동구 구월동   1138,4050,126.706188,37.455765,정창래
인천광역시,남동구,동방초등학교 운동장,인천광역시 남동구 논현동   633-8,2990,126.719667,37.40317,학교장
경기도,안산시,안산공업고등학교 운동장,경기도 안산시 상록구 부곡동   722,7813,126.860569,37.336229,
경기도,안산시,경수초등학교 운동장,경기도 안산시 상록구 성포동   594-3,2585,126.850608,37.32699,
인천광역시,부평구,신촌초등학교 운동장,인천광역시 부평구 십정동   186-346,2280,126.706767,37.48628,신촌초등학교장
경상북도,안동시,풍북초등학교 운동장,경상북도 안동시 풍산읍 괴정리 569,4345,128.534516,36.59802,
인천광역시,부평구,청천초등학교 운동장,인천광역시 부평구 청천동   34-6,1740,126.701035,37.520351,청천초등학교장
경기도,안산시,경일초등학교 운동장,경기도 안산시 상록구 성포동   591-1,5613,126.847835,37.32381,
경기도,안산시,덕인초등학교 운동장,경기도 안산시 단원구 와동   258-6,3476,126.824348,37.339988,
경상북도,포항시,송도공영주차장,경상북도 포항시 남구 송도동   430-1,3500,129.371486,36.034959,조상수
경상북도,의성군,단촌초등학교운동장,경상북도 의성군 단촌면 세촌리 875-1,4719,128.670492,36.425231,054-830-5059
경상북도,포항시,청하초등학교 운동장,경상북도 포항시 북구 청하면 덕성리 327,3300,129.33775,36.198561,조상수
경상북도,포항시,장원초등학교 운동장,경상북도 포항시 북구 장성동   1536-1,4200,129.384892,36.081388,조상수
전라남도,강진군,병영초등학교 운동장,전라남도 강진군 병영면 성남리 199-7,3354,126.815041,34.72007,차래호
강원도,강릉시,강원도립대학 운동장,강원도 강릉시 주문진읍 교항리 8-2,25000,128.829178,37.877083,
충청북도,진천군,진천삼수초등학교 운동장,충청북도 진천군 진천읍 읍내리 333-1,450,127.440903,36.856125,김희정
충청북도,진천군,진천중학교 운동장,충청북도 진천군 진천읍 성석리 462,1000,127.4467,36.86782,김창식
충청남도,서천군,서천고등학교 운동장,충청남도 서천군 서천읍 사곡리 203,5622,126.689479,36.08577,
대전광역시,유성구,노은초등학교 운동장,대전광역시 유성구 노은동   540,6918,127.321386,36.368985,한미영
전라남도,순천시,순천전자고등학교 운동장,전라남도 순천시 서면 동산리 107,2310,127.487696,34.99797,
전라남도,순천시,순천낙안중학교 운동장,전라남도 순천시 낙안면 교촌리 247-1,2720,127.34571,34.901472,
인천광역시,계양구,효성공원,인천광역시 계양구 효성동   223,7614,126.716039,37.52615,유민철
대전광역시,대덕구,대전회덕초등학교  운동장,대전광역시 대덕구 읍내동   317,3108,127.421416,36.374461,나한수
경상남도,고성군,고성여자중학교 운동장,경상남도 고성군 고성읍 송학리 309-1,3000,128.325699,34.979663,고성여자중학교
경상남도,고성군,공설운동장,경상남도 고성군 고성읍 교사리 53,20671,128.314144,34.976053,문화체육과장
경상남도,하동군,악양초등학교 운동장,경상남도 하동군 악양면 정서리 285-2,1972,127.708628,35.161617,
전라남도,담양군,담양남초등학교 운동장,전라남도 담양군 담양읍 지침리 92,1714,126.986488,35.317887,박은선
충청남도,서산시,서산시종합운동장,충청남도 서산시 갈산동   90,137938,126.435775,36.797863,
경상남도,고성군,대흥초등학교 운동장,경상남도 고성군 대가면 유흥리 679,6000,128.29707,35.015492,대흥초등학교장
경상남도,고성군,영현초등학교 운동장,경상남도 고성군 영현면 침점리 350,4460,128.204814,35.053984,영현초등학교장
전라남도,나주시,세지초등학교 운동장,전라남도 나주시 세지면 오봉리 263,4089,126.746945,34.918803,이현주
경상남도,산청군,차황면복지회관 주차장,경상남도 산청군 차황면 장위리 22-2,331,127.927352,35.464739,문준식
경상남도,산청군,삼장초등학교 운동장,경상남도 산청군 삼장면 석남리 188-0,893,127.839162,35.33491,문준식
경상남도,산청군,신안초등학교 운동장,경상남도 산청군 신안면 하정리 721-0,6426,127.972392,35.30138,문준식
광주광역시,동구,서석초등학교  운동장,광주광역시 동구 서석동   14-1,8900,126.924748,35.147086,조영록
부산광역시,사하구,감천중학교운동장,부산광역시 사하구 감천동   632-4,5950,128.999986,35.092615,
부산광역시,수영구,덕문여자고등학교 운동장,부산광역시 수영구 광안동   산8-8,3968,129.104141,35.167092,
경상북도,포항시,영일고등학교 운동장,경상북도 포항시 남구 연일읍 동문리 47-1,7800,129.353152,35.995453,조상수
경상북도,포항시,문충초등학교 운동장,경상북도 포항시 남구 오천읍 문충리 149-4,2800,129.398803,35.930322,조상수
경상북도,포항시,"지곡""라""공원",경상북도 포항시 남구 지곡동   965-1,3000,129.3134,36.0333,조상수
경상남도,함양군,지곡초등학교 운동장,경상남도 함양군 지곡면 개평리 287-1,3500,127.771752,35.565641,김주안
경상남도,함양군,병곡초등학교 운동장,경상남도 함양군 병곡면 송평리 80,2800,127.689569,35.528775,김주안
인천광역시,미추홀구,인천도화초등학교운동장,인천광역시 미추홀구 도화동   541-5,4148,126.668328,37.463412,
경기도,안산시,시곡중학교 운동장,경기도 안산시 상록구 사동   1342-1,6061,126.856107,37.292335,
경기도,안산시,감골운동장,경기도 안산시 상록구 사동   1342,5546,126.855892,37.293434,
경기도,안산시,성안고등학교 운동장,경기도 안산시 상록구 사동   1582,5985,126.842052,37.302724,
경기도,안산시,본오중학교 운동장,경기도 안산시 상록구 본오동   861,5533,126.867251,37.29277,
경기도,안산시,본오초등학교 운동장,경기도 안산시 상록구 본오동   821,4555,126.868676,37.294534,
경기도,안산시,안산디자인문화고등학교 운동장,경기도 안산시 상록구 본오동   798,5565,126.871869,37.297461,
경기도,안산시,안산부곡중학교 운동장,경기도 안산시 상록구 부곡동   693,6891,126.85865,37.323681,
경상남도,하동군,화개초등학교 운동장,경상남도 하동군 화개면 삼신리 594-2,1370,127.628857,35.19923,
충청남도,천안시,천안시종합운동장(보조경기장),충청남도 천안시 서북구 백석동   251-0,7841,127.115224,36.82039,
인천광역시,남동구,구월초등학교 운동장,인천광역시 남동구 구월동   1226-1,2422,126.716762,37.451896,학교장
인천광역시,남동구,정각초등학교 운동장,인천광역시 남동구 구월동   24-2,3884,126.715668,37.455651,학교장
인천광역시,남동구,인제고등학교 운동장,인천광역시 남동구 간석동   136-1,3280,126.713207,37.461591,학교장
인천광역시,남동구,간석여자중학교 운동장,인천광역시 남동구 간석동   80-1,6620,126.710739,37.46833,학교장
부산광역시,수영구,부산수영중학교 운동장,부산광역시 수영구 광안동   732,5600,129.109417,35.157527,
강원도,강릉시,강릉중학교 운동장,강원도 강릉시 입암동   497,15000,128.909354,37.753569,
충청남도,서천군,장항중앙초등학교 운동장,충청남도 서천군 장항읍 신창리 45,6594,126.690994,36.012691,
대전광역시,유성구,유성초등학교 운동장,대전광역시 유성구 장대동   155,10683,127.333329,36.362155,봉장근
전라남도,순천시,순천삼산초등학교 운동장,전라남도 순천시 석현동   24,4700,127.488254,34.96624,
충청남도,서천군,부내초등학교 운동장,충청남도 서천군 종천면 종천리 208-60,2398,126.646438,36.102569,
충청남도,서천군,비인초등학교 운동장,충청남도 서천군 비인면 성내리 212-4,1930,126.602037,36.142163,
전라북도,장수군,장수고등학교 운동장,전라북도 장수군 장수읍 선창리 345-1,6400,127.52295,35.655628,장수고등학교장
강원도,삼척시,삼척초등학교 운동장,강원도 삼척시 교동   585,7650,129.166756,37.449497,김동요
전라남도,순천시,승주초등학교 운동장,전라남도 순천시 승주읍 서평리 546-1,2720,127.380254,35.016735,
전라남도,순천시,송광초등학교 운동장,전라남도 순천시 송광면 이읍리 751,5030,127.267229,34.961224,
대전광역시,대덕구,대전중원초등학교  운동장,대전광역시 대덕구 중리동   371-5,3907,127.427641,36.365418,나한수
전라남도,담양군,담양동초등학교 운동장,전라남도 담양군 담양읍 객사리 271,3985,126.983486,35.320649,박은선
전라남도,담양군,창평고등학교 운동장,전라남도 담양군 창평면 창평리 232,2990,127.011662,35.237661,박은선
경상남도,하동군,고남초등학교 운동장,경상남도 하동군 고전면 전도리 417,1377,127.797754,35.000838,
경상남도,하동군,진교중학교 운동장,경상남도 하동군 진교면 진교리 560-1,6288,127.899127,35.03705,
대전광역시,서구,가장초등학교운동장,대전광역시 서구 가장동   25-1,4566,127.388494,36.330618,박보경
경상남도,고성군,삼산초등학교 운동장,경상남도 고성군 삼산면 미룡리 276,3137,128.273307,34.937924,삼산초등학교장
경상남도,고성군,하일초등학교 운동장,경상남도 고성군 하일면 학림리 722-5,3531,128.190171,34.945977,하일초등학교장
경상남도,고성군,고성곤충생태학교 운동장(구.영천중학교 영현분교),경상남도 고성군 영현면 봉림리 44-9,12058,128.204416,35.052855,고성곤충생태학교 대표
경상남도,고성군,회화중학교 운동장,경상남도 고성군 회화면 배둔리 1112-1,3800,128.362653,35.056208,회화중학교장
전라남도,나주시,남평초등학교 운동장,전라남도 나주시 남평읍 동사리 238,1632,126.846011,35.042383,김미숙
경상남도,산청군,금서초등학교 운동장,경상남도 산청군 금서면 화계리 671-0,1806,127.792611,35.460731,문준식
전라남도,나주시,동강초등학교 운동장,전라남도 나주시 동강면 인동리 355-0,2800,126.564556,34.938073,박선영
충청남도,부여군,부여 종합운동장,충청남도 부여군 규암면 나복리 456,20000,126.863622,36.278795,강배영
강원도,속초시,속초여자중학교운동장,강원도 속초시 금호동   625-37,5642,128.585001,38.206871,함종훈
강원도,속초시,설악중학교운동장,강원도 속초시 교동   780-5,3114,128.578508,38.205902,김기영
강원도,속초시,설악고등학교운동장,강원도 속초시 조양동   589-7,14115,128.573744,38.184665,김상민
울산광역시,울주군,간절곶스포츠파크,울산광역시 울주군 서생면 서생리 산14-1,23000,129.336441,35.373,손호기
경상남도,남해군,남해스포츠파크,경상남도 남해군 서면 서상리 1182-1,146553,127.83492,34.806082,류태경
부산광역시,영도구,영도초등학교 운동장,부산광역시 영도구 신선동1가   100,4595,129.04607,35.090034,양윤서
전라남도,해남군,우수영초등학교운동장,전라남도 해남군 문내면 난대리 517,6510,126.312118,34.604799,김성숙
전라남도,강진군,강진중앙초등학교 운동장,전라남도 강진군 강진읍 평동리 215-1,6664,126.766559,34.636561,조한명
충청남도,서천군,장항중학교 운동장,충청남도 서천군 장항읍 원수리 923-19,3159,126.702637,36.007976,
충청북도,진천군,만승초등학교 운동장,충청북도 진천군 광혜원면 광혜원리 79,1200,127.44212,36.992677,정문용
경상남도,고성군,방산초등학교 운동장,경상남도 고성군 거류면 용산리 195-158,3865,128.363889,34.971351,방산초등학교장
전라남도,나주시,반남초등학교 운동장,전라남도 나주시 반남면 신촌리 129,2800,126.65889,34.911415,최정란
전라남도,나주시,금천초등학교 운동장,전라남도 나주시 금천면 오강리 207,31216,126.755128,35.033791,나혜심
전라남도,나주시,산포초등학교 운동장,전라남도 나주시 산포면 매성리 199,15249,126.805639,35.034278,박현희
경상남도,산청군,생비량초등학교 운동장,경상남도 산청군 생비량면 도리 595-1,5360,128.046727,35.346295,문준식
강원도,속초시,속초고등학교운동장,강원도 속초시 장사동   460,8800,128.583772,38.225287,황호곤
강원도,속초시,조양초등학교운동장,강원도 속초시 조양동   1396-0,5988,128.598506,38.188329,윤택춘
전라북도,순창군,금과초등학교 운동장,전라북도 순창군 금과면 매우리 145,8040,127.087398,35.339463,
부산광역시,수영구,광안중학교 운동장,부산광역시 수영구 광안동   977-1,6000,129.105319,35.167713,
전라북도,순창군,구림초.중학교 운동장,전라북도 순창군 구림면 운남리 233,4344,127.100815,35.452728,
경상남도,남해군,이동초등학교 실외운동장,경상남도 남해군 이동면 석평리 52-2,3792,127.952447,34.803994,박은비
부산광역시,영도구,부산남고등학교 운동장,부산광역시 영도구 동삼동   592,11200,129.065855,35.069792,백소연
전라남도,해남군,화원초등학교운동장,전라남도 해남군 화원면 청용리 235-1,1200,126.332897,34.672768,김명근
전라남도,해남군,해남군축구전용구장1,전라남도 해남군 해남읍 해리 4-18,6610,126.619981,34.568386,이종돈
경상북도,봉화군,내성초등학교,경상북도 봉화군 봉화읍 내성리 452-1,9881,128.735957,36.886093,
경상북도,봉화군,재산초등학교,경상북도 봉화군 재산면 현동리 735,10170,128.963543,36.816881,
충청북도,진천군,문상초등학교 운동장,충청북도 진천군 문백면 사양리 38-1,450,127.472166,36.837547,연영환
강원도,속초시,속초여자고등학교운동장,강원도 속초시 교동   802-1,7740,128.569295,38.199381,권영극
부산광역시,수영구,광남초등학교 운동장,부산광역시 수영구 남천동   147,5940,129.114159,35.14538,
전라북도,순창군,팔덕초등학교 운동장,전라북도 순창군 팔덕면 용산리 353-1,5354,127.097032,35.392393,
전라북도,순창군,쌍치초등학교 운동장,전라북도 순창군 쌍치면 쌍계리 129,6000,127.002848,35.501864,
전라북도,순창군,순창군공설운동장,전라북도 순창군 순창읍 교성리 233-1,19000,127.126373,35.371724,
부산광역시,수영구,민락초등학교 운동장,부산광역시 수영구 민락동   3,7258,129.126868,35.160813,
경상남도,남해군,상주초등학교 실외운동장,경상남도 남해군 상주면 상주리 1174-0,3600,127.981383,34.724338,이승민
전라남도,장흥군,대덕초등학교 운동장,전라남도 장흥군 대덕읍 연정리 390-1,5608,126.890259,34.499776,고광문
충청남도,서천군,송림초등학교 운동장,충청남도 서천군 장항읍 옥산리 639-5,3118,126.683852,36.029402,
충청남도,서천군,마동초등학교 운동장,충청남도 서천군 마서면 송내리 419-1,2967,126.714927,36.024942,
전라북도,장수군,산서초등학교 운동장,전라북도 장수군 산서면 동화리 208,7300,127.394782,35.586947,산서초등학교장
전라북도,장수군,번암초등학교 운동장,전라북도 장수군 번암면 노단리 453,5500,127.547043,35.534231,번암초등학교장
강원도,삼척시,근덕초등학교 운동장,강원도 삼척시 근덕면 교가리 676-1,3200,129.224373,37.380397,심재남
전라남도,순천시,순천신흥초등학교 운동장,전라남도 순천시 조례동   1615,850,127.528126,34.953725,
경상남도,양산시,종합운동장 주차장,경상남도 양산시 북부동   533,12523,129.03349,35.346535,
전라북도,김제시,김제시민운동장,전라북도 김제시 검산동   산62-1,30535,126.901155,35.814658,
전라남도,담양군,봉산초등학교 운동장,전라남도 담양군 봉산면 신학리 131,9804,126.957366,35.276843,박은선
경상남도,하동군,궁항초등학교 운동장,경상남도 하동군 금성면 궁항리 1038,2060,127.796232,34.971092,
대전광역시,서구,월평초등학교운동장,대전광역시 서구 월평동   314,6400,127.357867,36.355785,박성철
경상남도,산청군,단계초등학교 운동장,경상남도 산청군 신등면 단계리 663-0,1564,128.010088,35.378714,문준식
강원도,속초시,대포초등학교운동장,강원도 속초시 대포동   350-0,4215,128.603663,38.173916,정복인
부산광역시,수영구,한바다중학교 운동장,부산광역시 수영구 광안동   154-1,3028,129.118262,35.157036,
전라북도,순창군,복흥면정산체육소공원,전라북도 순창군 복흥면 정산리 744-39,6450,126.932961,35.427926,
경상남도,남해군,고현초등학교 실외운동장,경상남도 남해군 고현면 대사리 618,5370,127.877673,34.896729,허치도
경상남도,남해군,설천초등학교 실외운동장,경상남도 남해군 설천면 남양리 71,2794,127.914864,34.926,김의수
경상남도,남해군,남면공설운동장,경상남도 남해군 남면 당항리 1329-2,27135,127.891121,34.771862,박정민
전라남도,장흥군,장흥장평중학교 운동장,전라남도 장흥군 장평면 용강리 52,9777,126.973214,34.774002,이종건
전라남도,해남군,송지초등학교운동장,전라남도 해남군 송지면 산정리 724-1,7432,126.520388,34.368904,김상국
전라남도,해남군,해남군축구전용구장3,전라남도 해남군 해남읍 해리 6-1,6640,126.619324,34.567455,이종돈
전라남도,장흥군,장흥고등학교 운동장,전라남도 장흥군 장흥읍 건산리 77,589,126.915525,34.67987,김일선
전라남도,장흥군,장동초등학교 운동장,전라남도 장흥군 장동면 북교리 306-4,9612,126.994027,34.746542,이점덕
부산광역시,중구,보수초등학교 운동장,부산광역시 중구 보수동1가   50-1,1696,129.024219,35.105885,김유정
경상북도,봉화군,물야초등학교,경상북도 봉화군 물야면 오록리 545-3,3107,128.737009,36.979355,
경상북도,봉화군,봉성초등학교,경상북도 봉화군 봉성면 봉성리 526-1,4125,128.814719,36.885636,
경상북도,봉화군,석포초등학교,경상북도 봉화군 석포면 석포리 376-8,5587,129.063817,37.047021,
충청북도,진천군,이월초등학교 운동장,충청북도 진천군 이월면 송림리 667,450,127.431346,36.93106,조성자
충청북도,진천군,이월중학교 운동장,충청북도 진천군 이월면 송림리 455-5,1200,127.428462,36.926993,한재장
대전광역시,유성구,학하초등학교 운동장,대전광역시 유성구 학하동   580-1,6419,127.312242,36.334405,이선재
전라남도,순천시,순천남산초등학교 운동장,전라남도 순천시 풍덕동   1102-18,5850,127.495532,34.938241,
전라남도,순천시,순천왕조초등학교 운동장,전라남도 순천시 조례동   1669,650,127.513882,34.960503,
전라남도,순천시,순천남초등학교 운동장,전라남도 순천시 저전동   90-3,5500,127.482685,34.950303,
대전광역시,대덕구,신탄진초등학교  운동장,대전광역시 대덕구 석봉동   308-7,4885,127.422308,36.449074,나한수
전라남도,담양군,무정초등학교 운동장,전라남도 담양군 무정면 봉안리 68-1,6509,127.040381,35.290265,박은선
전라남도,담양군,월산초등학교 운동장,전라남도 담양군 월산면 화방리 629-1,27238,126.956688,35.340404,주미경
경상남도,하동군,청암중학교 운동장,경상남도 하동군 청암면 평촌리 918,2840,127.798149,35.160689,
대전광역시,서구,유천초등학교운동장,대전광역시 서구 도마동   149-1,13542,127.375754,36.314727,
대전광역시,서구,구봉초등학교운동장,대전광역시 서구 관저동   1133,4678,127.329929,36.2995,석지영
대전광역시,서구,기성중학교운동장,대전광역시 서구 흑석동   295,15147,127.341185,36.250486,김하나
대전광역시,유성구,용산초등학교 운동장,대전광역시 유성구 용산동   662,2680,127.394773,36.419973,김민수
전라남도,구례군,원촌초등학교 운동장,전라남도 구례군 산동면 원촌리 214,6000,127.4384,35.316822,
경상남도,통영시,통영산양스포츠파크,경상남도 통영시 산양읍 남평리 742,235100,128.397693,34.803555,
경상남도,의령군,신반중학교 운동장,경상남도 의령군 부림면 신반리 148-6,4800,128.319627,35.462661,정현모
대전광역시,대덕구,대전화정초등학교 운동장,대전광역시 대덕구 오정동   93-1,4863,127.412222,36.356911,나한수
대전광역시,대덕구,대전중리초등학교  운동장,대전광역시 대덕구 법동   284-4,4455,127.427222,36.367493,나한수
경상남도,고성군,고성초등학교 운동장,경상남도 고성군 고성읍 서외리 90-0,5700,128.319043,34.976135,고성초등학교장
경상남도,고성군,고성중학교 운동장,경상남도 고성군 고성읍 교사리 337-1,12000,128.305546,34.978944,고성중학교장
경상남도,고성군,철성중학교 운동장,경상남도 고성군 고성읍 기월리 143-1,4370,128.319426,34.984634,철성중학교
경상남도,하동군,하동초등학교 운동장,경상남도 하동군 하동읍 광평리 299,5055,127.748151,35.066572,
경상남도,하동군,적량초등학교 운동장,경상남도 하동군 적량면 관리 136-2,3706,127.773733,35.08553,
경상남도,하동군,횡천초등학교 운동장,경상남도 하동군 횡천면 횡천리 752,2303,127.807875,35.110321,
충청남도,천안시,천안시종합운동장(주경기장),충청남도 천안시 서북구 백석동   251-0,11123,127.113986,36.819918,
전라남도,담양군,남면초등학교 운동장,전라남도 담양군 남면 연천리 355,6202,127.026715,35.178046,박은선
전라남도,담양군,금성초등학교 운동장,전라남도 담양군 금성면 석현리 124,7152,127.025502,35.344325,박은선
전라남도,담양군,용면초등학교 운동장,전라남도 담양군 용면 추성리 404,11373,126.990827,35.363282,박은선
경상남도,고성군,동해초등학교 운동장,경상남도 고성군 동해면 양촌리 832,3459,128.444363,35.04604,동해초등학교장
경상남도,산청군,오부초등학교 운동장,경상남도 산청군 오부면 오전리 840-0,668,127.88669,35.499443,문준식
경상남도,산청군,생초초등학교 운동장,경상남도 산청군 생초면 어서리 351-0,2426,127.836193,35.49484,문준식
광주광역시,동구,전남여자고등학교 운동장,광주광역시 동구 장동   39-12,3900,126.920721,35.151362,조영록
광주광역시,동구,용산초등학교  운동장,광주광역시 동구 용산동   180-0,4300,126.930712,35.118908,조영록
부산광역시,사하구,다대고등학교운동장,부산광역시 사하구 다대동   1551,6997,128.969526,35.052713,
전라북도,순창군,유등초등학교 운동장,전라북도 순창군 유등면 외이리 186,4400,127.188709,35.362105,
전라북도,순창군,풍산초등학교 운동장,전라북도 순창군 풍산면 반월리 153,1667,127.137295,35.337209,
전라남도,나주시,다도초등학교 운동장,전라남도 나주시 다도면 궁원리 316,7250,126.826766,34.957958,장경순
경상남도,남해군,성명초등학교 실외운동장,경상남도 남해군 서면 서상리 655-1,4885,127.838439,34.808445,류태경
전라남도,강진군,마량초등학교 운동장,전라남도 강진군 마량면 마량리 1028-3,2604,126.813936,34.457131,박신주
전라남도,강진군,신전초등학교 운동장,전라남도 강진군 신전면 용월리 1033-1,4896,126.709626,34.49956,장철실
대전광역시,유성구,진잠초등학교 운동장,대전광역시 유성구 원내동   62,5041,127.314958,36.299322,백성훈
충청남도,서천군,문산초등학교 운동장,충청남도 서천군 문산면 신농리 21-1,2220,126.751349,36.142647,
강원도,삼척시,도계중학교 운동장,강원도 삼척시 도계읍 도계리 285-1,4500,129.04809,37.232735,한상석 실장님
강원도,삼척시,정라초등학교 운동장,강원도 삼척시 정상동   344,7200,129.176218,37.44524,이희남
대전광역시,유성구,봉명초등학교 운동장,대전광역시 유성구 봉명동   1023,2933,127.343584,36.349466,이은정
대전광역시,유성구,덕송초등학교 운동장,대전광역시 유성구 덕명동   498,6229,127.301925,36.361028,임헌하
대전광역시,유성구,전민초등학교 운동장,대전광역시 유성구 전민동   468,3629,127.407143,36.398446,김성수
전라남도,순천시,순천도사초등학교 운동장,전라남도 순천시 홍내동   637-3,5400,127.500119,34.914519,
경상남도,함안군,대산중학교 운동장,경상남도 함안군 대산면 평림리 955-0,16112,128.43856,35.347023,송유섭
경상남도,고성군,공설테니스장,경상남도 고성군 고성읍 교사리 377,5900,128.309327,34.978308,문화체육과장
경상남도,고성군,경남항공고등학교 운동장,경상남도 고성군 고성읍 교사리 338-5,6112,128.305958,34.978197,경남항공고등학교장
전라남도,담양군,만덕초등학교 운동장,전라남도 담양군 대덕면 매산리 97,10993,127.035851,35.249165,박은선
전라남도,담양군,수북초등학교 운동장,전라남도 담양군 수북면 수북리 161,17514,126.930294,35.300997,박은선
경상남도,하동군,북천초등학교 운동장,경상남도 하동군 북천면 직전리 677-1,2750,127.889144,35.113638,
경상남도,고성군,하일초등학교 장춘분교(폐교부지) 운동장,경상남도 고성군 하일면 춘암리 401-2,6952,128.17891,34.912453,하일면장
경상남도,고성군,고성고등학교 운동장,경상남도 고성군 회화면 배둔리 1182,6554,128.363114,35.055187,고성고등학교장
전라남도,나주시,문평초등학교 운동장,전라남도 나주시 문평면 동원리 719,4033,126.604346,35.058415,최남희
전라남도,나주시,노안중학교 운동장,전라남도 나주시 노안면 금동리 59-8,7200,126.734312,35.072896,나혜주
광주광역시,동구,살레시오여고 운동장,광주광역시 동구 지산동   480,4900,126.929998,35.146566,조영록
전라남도,장흥군,관산남초등학교 운동장,전라남도 장흥군 관산읍 삼산리 97,5814,126.954665,34.526292,김정운
전라남도,장흥군,부산초등학교 운동장,전라남도 장흥군 부산면 구룡리 378,10967,126.902003,34.722301,정옥순
전라남도,해남군,북일초등학교운동장,전라남도 해남군 북일면 흥촌리 109,15000,126.676012,34.467718,김정자
전라남도,해남군,현산초등학교운동장,전라남도 해남군 현산면 일평리 876-2,9438,126.552707,34.45891,김효성
전라남도,해남군,우슬경기장,전라남도 해남군 해남읍 해리 2,14100,126.622347,34.568327,이종돈
전라남도,장흥군,안양초등학교 운동장,전라남도 장흥군 안양면 운흥리 508,19251,126.973437,34.651511,정남종
경상북도,봉화군,법전중앙초등학교,경상북도 봉화군 법전면 법전리 39-3,2788,128.877405,36.914371,
경상북도,봉화군,명호초등학교,경상북도 봉화군 명호면 도천리 195-3,8825,128.899208,36.856089,
충청북도,진천군,문백초등학교 운동장,충청북도 진천군 문백면 봉죽리 297,100,127.432885,36.786276,박나영
충청북도,진천군,백곡초등학교 운동장,충청북도 진천군 백곡면 구수리 21-1,1000,127.359552,36.886089,황계자
충청남도,서천군,시초초등학교 운동장,충청남도 서천군 시초면 초현리 61-1,2480,126.751558,36.121899,
전라북도,장수군,계북초등학교 운동장,전라북도 장수군 계북면 어전리 739,5000,127.616673,35.787476,계북초등학교장
대전광역시,유성구,외삼초등학교 운동장,대전광역시 유성구 반석동   617,3741,127.310631,36.392677,임정희
충청남도,아산시,이순신종합운동장,충청남도 아산시 풍기동   366-2,9890,127.021236,36.768318,아산시
인천광역시,계양구,작전공원 1,인천광역시 계양구 작전동   414,6608,126.725707,37.52623,유민철
경상남도,하동군,옥종고등학교 운동장,경상남도 하동군 옥종면 양구리 41-1,3700,127.884397,35.177754,
대전광역시,서구,가수원중학교운동장,대전광역시 서구 가수원동   806-18,8495,127.354634,36.298106,박진희
경상남도,고성군,고성중앙고등학교 운동장,경상남도 고성군 고성읍 수남리 524,7307,128.318952,34.967454,고성중앙고등학교장
경상남도,고성군,경남고성음악고등학교 운동장,경상남도 고성군 하일면 학림리 701-2,11686,128.19312,34.944022,경남고성음악고등학교
경상남도,고성군,하이체육공원,경상남도 고성군 하이면 덕호리 513-2,3284,128.121371,34.930321,하이면장
경상남도,고성군,구만초등학교 운동장,경상남도 고성군 구만면 효락리 621-2,1763,128.33564,35.087865,구만초등학교장
경상남도,고성군,마암초등학교 운동장,경상남도 고성군 마암면 도전리 492,4300,128.336611,35.056051,마암초등학교장
경상남도,고성군,거류체육공원,경상남도 고성군 거류면 신용리 888,28520,128.406665,34.983082,거류면장
광주광역시,동구,학운초등학교  운동장,광주광역시 동구 운림동   482,2600,126.947045,35.133016,조영록
전라북도,순창군,중앙초등학교 운동장,전라북도 순창군 순창읍 남계리 270,4273,127.145035,35.376864,행정실
충청남도,서천군,화양초등학교 운동장,충청남도 서천군 화양면 봉명리 132-2,2806,126.776342,36.043455,
충청남도,서천군,비인중학교 운동장,충청남도 서천군 비인면 성내리 151,3859,126.605812,36.139169,
대전광역시,유성구,장대초등학교 운동장,대전광역시 유성구 장대동   348,2186,127.339367,36.361532,백현중
경상남도,남해군,상주한려해상체육공원,경상남도 남해군 상주면 상주리 1778-2,203,127.981383,34.724338,이승민
울산광역시,울주군,삼동면민운동장,울산광역시 울주군 삼동면 보은리 637,13749,129.129907,35.503716,오세범
전라남도,광양시,가야초등학교 운동장,전라남도 광양시 광영동   250,2890,127.713142,34.966834,가야초등학교장
경상남도,의령군,낙서면사무소 방계운동장,경상남도 의령군 낙서면 전화리 228-1,3300,128.377119,35.484076,박두승
경상남도,의령군,부림공설운동장,경상남도 의령군 부림면 감암리 1208-1,16520,128.319953,35.472229,정현모
경상남도,의령군,의령중학교 운동장,경상남도 의령군 의령읍 동동리 1087,2096,128.265598,35.324162,이효빈
충청북도,음성군,원당초등학교 운동장,충청북도 음성군 감곡면 원당리 159-1,9900,127.615724,37.074039,김성문
경상북도,포항시,양학초등학교 운동장,경상북도 포항시 북구 학잠동   191,5000,129.344584,36.031967,조상혁
경상북도,포항시,창포중학교 운동장,경상북도 포항시 북구 창포동   647-0,4100,129.36878,36.065569,조상수
제주특별자치도,서귀포시,예래초등학교 운동장,제주특별자치도 서귀포시 상예동   1152-3,3300,126.39146,33.246034,
인천광역시,연수구,부수지공원,인천광역시 연수구 동춘동   925-5,19001,126.679224,37.407441,장윤경
제주특별자치도,서귀포시,중문초등학교 운동장,제주특별자치도 서귀포시 중문동   1984,5666,126.429442,33.252418,
인천광역시,미추홀구,산성어린이공원,인천광역시 미추홀구 문학동   403-15,1722,126.686642,37.434792,
경기도,안산시,안산해양초등학교 운동장,경기도 안산시 상록구 사동   1512-1,3258,126.823808,37.294286,
경기도,안산시,성포중학교 운동장,경기도 안산시 상록구 월피동   459,7574,126.851113,37.335133,
인천광역시,부평구,갈월초등학교 운동장,인천광역시 부평구 갈산동   373,3060,126.725174,37.509845,갈월초등학교장
인천광역시,옹진군,영흥중운동장,인천광역시 옹진군 영흥면 내리 496-95,2800,126.479794,37.265632,권순범
경기도,안산시,안산석수초등학교 운동장,경기도 안산시 단원구 선부동   1042,4990,126.806165,37.34459,
경기도,안산시,선부고등학교 운동장,경기도 안산시 단원구 선부동   35,3457,126.793955,37.341128,
경기도,안산시,대남초등학교 운동장,경기도 안산시 단원구 대부남동   1066-123,4258,126.575806,37.219409,
경기도,안산시,대부초등학교 운동장,경기도 안산시 단원구 대부북동   181,4932,126.580333,37.245242,
전라남도,구례군,산동중학교 운동장,전라남도 구례군 산동면 원촌리 341,6000,127.435311,35.315653,
경상북도,경주시,서라벌초등학교 운동장,경상북도 경주시 천군동   582,3123,129.279168,35.831292,
전라남도,여수시,안심초등학교 운동장,전라남도 여수시 소호동   428,757,127.646793,34.739855,김혜영
경상북도,포항시,원동초등학교 운동장,경상북도 포항시 남구 오천읍 원리 978-0,2400,129.401575,35.965028,조상수
경상북도,포항시,포항운하관 공영주차장,경상북도 포항시 남구 송도동   222-0,7000,129.377326,36.023473,조상수
경상북도,포항시,포항초등학교 운동장,경상북도 포항시 북구 덕산동   902-1,3000,129.363605,36.042647,조상수
경상북도,포항시,포항대흥초등학교 운동장,경상북도 포항시 북구 용흥동   418-8,7000,129.352115,36.045561,조상수
인천광역시,미추홀구,용일초등학교운동장,인천광역시 미추홀구 용현동   74-1,9093,126.663498,37.452795,
인천광역시,미추홀구,학익고등학교운동장,인천광역시 미추홀구 학익동   688-1,7176,126.663839,37.439078,
인천광역시,미추홀구,주안초등학교운동장,인천광역시 미추홀구 주안동   454-1,2275,126.681194,37.457803,
인천광역시,미추홀구,인천고등학교운동장,인천광역시 미추홀구 주안동   1555,18363,126.690712,37.453476,
경기도,안산시,성포초등학교 운동장,경기도 안산시 상록구 성포동   592-1,5513,126.842539,37.324042,
경기도,안산시,와동중학교 운동장,경기도 안산시 단원구 와동   143,3936,126.830348,37.338908,
인천광역시,부평구,용마초등학교 운동장,인천광역시 부평구 청천동   176-4,2760,126.707133,37.515552,용마초등학교장
경기도,안산시,경안고등학교 운동장,경기도 안산시 단원구 고잔동   677,8268,126.833737,37.325655,
경상북도,경주시,경주여자정보고등학교 운동장,경상북도 경주시 시래동   729-1,10087,129.290608,35.773037,
경상북도,경주시,불국중학교 운동장,경상북도 경주시 시래동   206,5116,129.309014,35.77355,
경상북도,경주시,계림고등학교 운동장,경상북도 경주시 황성동   897-1,8969,129.208557,35.86592,
경상북도,경주시,근화여자중학교 운동장,경상북도 경주시 용강동   870,21044,129.226923,35.871304,
경상북도,경주시,선도동 주민센터 주차장,경상북도 경주시 충효동   544-3,1517,129.174867,35.843786,
경상북도,경주시,월성중학교 운동장,경상북도 경주시 충효동   549-6,10633,129.176146,35.842322,
경상북도,경주시,신라고등학교 운동장,경상북도 경주시 충효동   191,9504,129.187591,35.840089,
경상북도,경주시,문화중학교 운동장,경상북도 경주시 충효동   717,22822,129.168738,35.853216,
경상북도,경주시,경주정보고등학교 운동장,경상북도 경주시 충효동   549-6,10633,129.176146,35.842322,
경상북도,경주시,통일전주차장,경상북도 경주시 남산동   937-1,20671,129.239772,35.798361,
경상북도,경주시,동방초등학교 운동장,경상북도 경주시 동방동   151,2489,129.262324,35.803687,
인천광역시,계양구,작동초등학교 운동장,인천광역시 계양구 작전동   920,3476,126.735656,37.528891,학교장
전라남도,여수시,여남초등학교 운동장,전라남도 여수시 남면 우학리 263,4096,127.766365,34.511683,김수구
경상북도,경주시,신라초등학교 운동장,경상북도 경주시 사정동   450,3115,129.204255,35.834519,
경상북도,경주시,경주중학교 운동장,경상북도 경주시 황오동   13,5011,129.225846,35.84348,
경상북도,경주시,계림초등학교 운동장,경상북도 경주시 북부동   9,8750,129.212881,35.849113,
인천광역시,서구,검암초등학교 운동장,인천광역시 서구 검암동   495,1943,126.678546,37.567834,학교장
전라남도,구례군,구례여자중학교 운동장,전라남도 구례군 구례읍 봉남리 106,900,127.463568,35.205641,
전라남도,구례군,전라남도자연탐구수련원 지리산학생수련장 운동장,전라남도 구례군 광의면 수월리 494,3100,127.46363,35.247307,이재진
경상북도,군위군,석산초등학교 운동장,경상북도 군위군 고로면 석산리 547-1,1071,128.855137,36.174968,
충청북도,음성군,대소중학교 운동장,충청북도 음성군 대소면 삼정리 613-7,12400,127.489959,36.963389,이종학
경상남도,함양군,함양제일고등학교 운동장,경상남도 함양군 함양읍 교산리 210,8362,127.732822,35.524997,김주안
경상북도,포항시,신흥초등학교 운동장,경상북도 포항시 남구 상도동   607-6,4300,129.35335,36.013262,조상수
경상남도,함양군,서상중학교 운동장,경상남도 함양군 서상면 도천리 1047-6,10000,127.68857,35.676966,김주안
경상남도,함양군,백전초등학교 운동장,경상남도 함양군 백전면 평정리 481,3434,127.634862,35.55243,김주안
경상북도,포항시,포항송곡초등학교 운동장,경상북도 포항시 북구 양덕동   336-2,2500,129.384326,36.091791,조상수
경상북도,경주시,황오동 공영주차장,경상북도 경주시 성동동   97-2,3300,129.220119,35.846223,
인천광역시,연수구,문화공원,인천광역시 연수구 연수동   578-0,41909,126.680486,37.417768,정재진
인천광역시,미추홀구,용정초등학교운동장,인천광역시 미추홀구 숭의동   12-8,9698,126.657555,37.459707,
인천광역시,미추홀구,석암초등학교운동장,인천광역시 미추홀구 주안동   55-1,9039,126.686757,37.461838,
인천광역시,미추홀구,인화여자중학교운동장,인천광역시 미추홀구 도화동   20-6,10477,126.653723,37.474929,
경기도,안산시,정재초등학교 운동장,경기도 안산시 상록구 부곡동   225-5,3193,126.864554,37.338237,
경기도,안산시,삼일초등학교 운동장,경기도 안산시 상록구 월피동   448-1,4454,126.850584,37.332155,
경상북도,안동시,풍산고등학교 운동장,경상북도 안동시 풍산읍 안교리 320,11075,128.565383,36.583167,
경기도,안산시,안산창촌초등학교 운동장,경기도 안산시 상록구 건건동   619,1784,126.904503,37.307436,
인천광역시,서구,신촌공원,인천광역시 서구 석남동   521-1,4628,126.669733,37.507972,서구청장
경기도,안산시,대동초등학교 운동장,경기도 안산시 단원구 대부동동   838,4234,126.600135,37.240931,
경상북도,경주시,신라중학교 운동장,경상북도 경주시 황성동   1053-18,9444,129.217055,35.854839,
경상북도,경주시,흥무초등학교 운동장,경상북도 경주시 성건동   486,7548,129.204128,35.849373,
경상북도,경주시,경주고등학교 운동장,경상북도 경주시 황오동   13,19061,129.225846,35.84348,
경상북도,경주시,월성초등학교  운동장,경상북도 경주시 노서동   35-1,6785,129.207835,35.84279,
경상북도,경주시,모아초등학교 운동장,경상북도 경주시 천북면 모아리 588,1611,129.246309,35.919768,
경상북도,경주시,강동면사무소 주차장,경상북도 경주시 강동면 인동리 29-1,1731,129.273418,35.987636,
경상북도,경주시,강동초등학교 운동장,경상북도 경주시 강동면 유금리 1111,4347,129.277011,35.992248,
인천광역시,서구,가석초등학교 운동장,인천광역시 서구 가정동   430-37,2038,126.679634,37.514476,학교장
경상북도,경주시,현곡초등학교 운동장,경상북도 경주시 현곡면 하구리 1120,1911,129.180626,35.88674,
경상북도,경주시,경주디자인고등학교 운동장,경상북도 경주시 현곡면 가정리 49-2,10324,129.163352,35.900295,
경상북도,경주시,나원초등학교 운동장,경상북도 경주시 현곡면 금장리 394,4890,129.203424,35.869596,
인천광역시,옹진군,이작분교운동장,인천광역시 옹진군 자월면 이작리 575-3,611,126.252839,37.176608,
인천광역시,옹진군,이작2리목섬족구장,인천광역시 옹진군 자월면 이작리 231-5,175,126.221984,37.181269,김경식
경기도,안산시,선일초등학교 운동장,경기도 안산시 단원구 선부동   1002,5011,126.800004,37.340013,
인천광역시,서구,가좌중학교 운동장,인천광역시 서구 가좌동   195,3866,126.679662,37.495446,학교장
인천광역시,서구,간재울공원,인천광역시 서구 검암동   607-2,1750,126.674594,37.564151,서구청장
경기도,안산시,송호중학교 운동장,경기도 안산시 단원구 고잔동   765-1,5068,126.839377,37.311098,
경상남도,사천시,노산초등학교 운동장,경상남도 사천시 동금동   171-5,1200,128.08322,34.930565,
경상남도,통영시,남망산조각공원,경상남도 통영시 동호동   230-1,152480,128.429419,34.84128,
인천광역시,계양구,방축공원,인천광역시 계양구 방축동   211,1267,126.740328,37.550533,유민철
전라남도,구례군,전남자연과학고등학교 운동장,전라남도 구례군 구례읍 봉서리 1066,4100,127.46254,35.200165,
경상남도,통영시,한산초중학교운동장,경상남도 통영시 한산면 하소리 36-2,2450,128.506975,34.768146,하덕호
인천광역시,계양구,굴재공원,인천광역시 계양구 귤현동   499-6,1120,126.749074,37.567881,유민철
경상남도,통영시,욕지중학교운동장,경상남도 통영시 욕지면 동항리 809-2,1896,128.260247,34.635712,
인천광역시,계양구,까치공원,인천광역시 계양구 작전동   908,11931,126.737324,37.533323,유민철
인천광역시,계양구,경인교대부속초등학교 운동장,인천광역시 계양구 효성동   산19-1,2562,126.712234,37.537179,학교장
인천광역시,계양구,계산초등학교 운동장,인천광역시 계양구 계산동   737,3913,126.718029,37.544469,학교장
인천광역시,계양구,계양중학교 운동장,인천광역시 계양구 귤현동   430,4976,126.739146,37.569028,학교장
인천광역시,계양구,계양초등학교 운동장,인천광역시 계양구 장기동   134,6475,126.733496,37.578401,학교장
전라남도,광양시,세풍초등학교 운동장,전라남도 광양시 광양읍 세풍리 210-0,3738,127.589773,34.94742,세풍초등학교장
인천광역시,계양구,귤현초등학교 운동장,인천광역시 계양구 귤현동   494,3199,126.747111,37.568411,학교장
인천광역시,계양구,예일고등학교 운동장,인천광역시 계양구 방축동   27-1,4306,126.741646,37.554002,학교장
인천광역시,계양구,효성초등학교 운동장,인천광역시 계양구 효성동   28-1,4477,126.710661,37.536397,학교장
전라남도,여수시,소라초등학교 운동장,전라남도 여수시 소라면 덕양리 1220,17591,127.631211,34.795849,윤세희
전라남도,여수시,연도초등학교 운동장,전라남도 여수시 남면 연도리 424,3100,127.800843,34.432717,김수구
전라남도,여수시,구봉초등학교 운동장,전라남도 여수시 국동   823,1000,127.714332,34.735802,김경호
전라남도,광양시,광영초등학교 운동장,전라남도 광양시 광영동   75,3980,127.720255,34.963354,광영초등학교장
전라남도,여수시,진남여자중학교 운동장,전라남도 여수시 미평동   328,7908,127.706517,34.770104,김정신
전라남도,여수시,쌍봉초등학교 운동장,전라남도 여수시 학동   238,9312,127.667936,34.76357,김혜영
전라남도,여수시,신기초등학교 운동장,전라남도 여수시 신기동   75-3,9987,127.675643,34.760799,장규현
전라남도,여수시,웅천초등학교 운동장,전라남도 여수시 웅천동   1674,2911,127.674722,34.749909,장규현
대전광역시,동구,산내초등학교 운동장,대전광역시 동구 낭월동   632,6742,127.469849,36.279211,이향숙
경상남도,의령군,유곡면민체육운동장,경상남도 의령군 유곡면 칠곡리 546-0,3600,128.303544,35.423439,이권희
경상북도,포항시,포항여자고등학교 운동장,경상북도 포항시 북구 학산동   243,5000,129.364874,36.050231,조상수
충청북도,영동군,군민운동장,충청북도 영동군 영동읍 매천리 110-1,15248,127.783774,36.166096,강인호
인천광역시,연수구,용담공원,인천광역시 연수구 청학동   467,30112,126.673688,37.419681,정진성
인천광역시,동구,송림초등학교 운동장,인천광역시 동구 송림동   235-1,2772,126.637435,37.474171,
인천광역시,서구,가좌여자중학교 운동장,인천광역시 서구 가좌동   343,3904,126.684824,37.485619,학교장
전라남도,나주시,영산포초등학교 운동장,전라남도 나주시 이창동   178,28946,126.714638,34.993517,이애련
인천광역시,서구,청라1호근린공원,인천광역시 서구 경서동   673-19,7000,126.603368,37.531693,서구청장
인천광역시,서구,공촌공원,인천광역시 서구 공촌동   313,1680,126.684326,37.551101,서구청장
경상남도,사천시,곤양중학교 운동장,경상남도 사천시 곤양면 송전리 134,992,127.97326,35.059781,
인천광역시,계양구,초정공원,인천광역시 계양구 용종동   213-1,1658,126.741498,37.540849,유민철
전라남도,구례군,구례동중학교 운동장,전라남도 구례군 토지면 파도리 25,5900,127.545776,35.192478,
인천광역시,계양구,계산공업고등학교 운동장,인천광역시 계양구 계산동   1084-6,3936,126.739424,37.534454,학교장
인천광역시,계양구,계산여자고등학교 운동장,인천광역시 계양구 용종동   228-2,2757,126.742335,37.538798,학교장
인천광역시,계양구,성지초등학교 운동장,인천광역시 계양구 작전동   448-2,3387,126.719965,37.526183,학교장
인천광역시,계양구,작전고등학교 운동장,인천광역시 계양구 작전동   90,4401,126.730035,37.53271,학교장
전라남도,여수시,화정초등학교 운동장,전라남도 여수시 화정면 개도리 624,9828,127.659989,34.570614,김수현
대전광역시,동구,가오중학교 운동장,대전광역시 동구 가오동   171-6,3300,127.457439,36.308441,김문구 
전라남도,여수시,구봉중학교 운동장,전라남도 여수시 국동   878,14880,127.714592,34.731877,김경호
전라남도,여수시,신월초등학교 운동장,전라남도 여수시 신월동   9-22,7999,127.713596,34.727087,서장우
대전광역시,동구,동대전중학교 운동장,대전광역시 동구 가양동   10,8673,127.455435,36.345329,김명중
전라남도,여수시,양지초등학교 운동장,전라남도 여수시 미평동   762,7000,127.701086,34.772603,김정신
경상남도,의령군,부림초등학교 운동장,경상남도 의령군 부림면 신반리 253-1,6650,128.320629,35.465207,정현모
경상남도,의령군,의령고등학교 운동장,경상남도 의령군 의령읍 동동리 1012,5800,128.266831,35.322471,이효빈
경기도,오산시,운암초등학교,경기도 오산시 원동   815-5,5118,127.076188,37.143695,안효선
경기도,오산시,대원초등학교,경기도 오산시 갈곶동   258,4670,127.071028,37.130561,원기종
경상북도,군위군,효령초등학교 운동장,경상북도 군위군 효령면 중구리 171-1,2654,128.58683,36.156366,
충청북도,음성군,대소금왕고등학교 운동장,충청북도 음성군 금왕읍 본대리 267-4,7276,127.529036,36.981123,
충청북도,음성군,쌍봉초등학교 운동장,충청북도 음성군 금왕읍 쌍봉리 413,4800,127.542326,37.00261,이병희
충청북도,음성군,삼성초등학교 운동장,충청북도 음성군 삼성면 덕정리 508-1,9341,127.496603,37.019867,이상국
경상남도,함양군,위림초등학교 운동장,경상남도 함양군 함양읍 백연리 511,5650,127.719298,35.520987,김주안
경상북도,포항시,문덕초등학교 운동장,경상북도 포항시 남구 오천읍 문덕리 1188-403,4900,129.40943,35.96014,조상수
경상북도,포항시,신흥중학교 운동장,경상북도 포항시 남구 오천읍 세계리 700-3,3400,129.422057,35.964745,조상수
인천광역시,서구,봉수초등학교 운동장,인천광역시 서구 가정동   284-438,2486,126.678245,37.525932,학교장
경기도,파주시,연풍초등학교 운동장,경기도 파주시 파주읍 연풍리 427,9000,126.834611,37.830822,
경기도,파주시,장파초등학교 운동장,경기도 파주시 파평면 장파리 348-1,9129,126.837833,37.941103,
경기도,파주시,파평초등학교 운동장,경기도 파주시 파평면 두포리 260,9503,126.838066,37.903466,
경상북도,영덕군,병곡면 영덕경찰수련원 주차장(덕천지구),경상북도 영덕군 병곡면 덕천리 190-42,564,129.416705,36.568659,안전재난건설과 재해복구담당 김경호
경상북도,경주시,구정동 광장,경상북도 경주시 구정동   484-6,9873,129.29706,35.777744,
경상북도,경주시,강동초등학교 단구분교 운동장,경상북도 경주시 강동면 단구리 1147,1342,129.244229,36.0514,
경상북도,경주시,안강생활체육공원 축구장,경상북도 경주시 안강읍 근계리 1418-474,9987,129.217661,35.986211,
경상북도,상주시,화북중학교 운동장,경상북도 상주시 화북면 용유리 340-1,5019,127.921619,36.559232,서영호
경상북도,상주시,상주중학교 운동장,경상북도 상주시 만산동   673-1,8830,128.155188,36.428839,정재기
충청북도,옥천군,증약초등학교 대정분교 운동장,충청북도 옥천군 군북면 대정리 577,3270,127.538501,36.389187,
전라남도,곡성군,곡성중학교 운동장,전라남도 곡성군 곡성읍 읍내리 726-1,11025,127.289132,35.281419,김승희
경상북도,성주군,성주중학교 운동장,경상북도 성주군 성주읍 예산리 640,26727,128.283346,35.928492,김진철
경상북도,성주군,선남초등학교 운동장,경상북도 성주군 선남면 관화리 873,3000,128.352032,35.906505,이용관
전라남도,화순군,이양초등학교 운동장,전라남도 화순군 이양면 이양리 317-0,16250,126.988546,34.883415,김지아
전라남도,화순군,능주고등학교 운동장,전라남도 화순군 능주면 잠정리 106-0,17520,126.958583,34.985651,김지아
전라남도,영암군,도포중학교 운동장,전라남도 영암군 도포면 구학리 370-3,5000,126.642803,34.849207,
경상북도,구미시,경북외국어고등학교 운동장,경상북도 구미시 남통동   110,6271,128.321251,36.123924,황성식
경상북도,구미시,인동고등학교 운동장,경상북도 구미시 구평동   477,3315,128.432165,36.090044,김영동
경상북도,구미시,황상공원,경상북도 구미시 황상동   268-2,1517,128.423753,36.112187,
경상북도,구미시,금오공업고등학교 운동장,경상북도 구미시 공단동   111,33000,128.3689,36.119204,강병철
경상북도,구미시,형곡중학교 운동장,경상북도 구미시 형곡동   289-2,4804,128.331156,36.106593,윤희식
경상북도,구미시,진평중학교 운동장,경상북도 구미시 진평동   178,14087,128.421209,36.094961,홍진영
경상북도,구미시,옥계동부중학교 운동장,경상북도 구미시 옥계동   911,3147,128.42617,36.138834,황윤하
경상북도,구미시,원평공원,경상북도 구미시 원평동   1078,14754,128.355133,36.121002,
경상북도,구미시,구미중학교 운동장,경상북도 구미시 도량동   703-3,14556,128.330395,36.147302,강신봉
경상북도,구미시,형곡공원,경상북도 구미시 형곡동   142-0,29436,128.332108,36.113568,
경상북도,구미시,송정공원,경상북도 구미시 송정동   448,16497,128.354436,36.119585,
경상북도,구미시,장천초등학교 운동장,경상북도 구미시 장천면 하장리 503-1,9579,128.494824,36.130247,이상목
경상북도,경주시,경동하이츠 7차옆 공원,경상북도 경주시 용강동   1342-1,1111,129.225881,35.860637,
경상북도,상주시,중동초등학교 운동장,경상북도 상주시 중동면 오상리 303-0,1706,128.267706,36.429479,임정대
경상북도,상주시,백원초등학교 운동장,경상북도 상주시 외서면 관동리 147,3700,128.172293,36.479753,임현수
경상북도,상주시,상주삼백농업농촌 테마공원,경상북도 상주시 복룡동   161-75,47167,128.179697,36.420426,오창석
경상북도,상주시,상주공업고등학교 운동장,경상북도 상주시 낙양동   388-0,5630,128.145373,36.406322,김동완
경상북도,봉화군,봉화군청 잔디광장,경상북도 봉화군 봉화읍 내성리 537,2638,128.73288,36.892929,금광원
경상북도,봉화군,춘양초등학교 눌산분교(폐교),경상북도 봉화군 법전면 눌산리 1134-2,1268,128.953199,36.89328,
경상북도,문경시,호서남초등학교 운동장,경상북도 문경시 흥덕동   348-0,4675,128.203525,36.604639,
전라남도,무안군,전남체육중고등학교 운동장,전라남도 무안군 일로읍 월암리 16-4,10800,126.497379,34.844544,고운석(010-3613-9618)
전라남도,강진군,강진군 축구전용구장(남포축구장),전라남도 강진군 강진읍 남포리 548,19500,126.77373,34.619922,윤근식
전라남도,신안군,임자고등학교,전라남도 신안군 임자면 대기리 353,3000,126.098631,35.090678,박안석
경상북도,성주군,성주별고을운동장,경상북도 성주군 성주읍 대흥리 901-3,25070,128.256418,35.912893,김진철
전라남도,신안군,안좌고등학교,전라남도 신안군 안좌면 읍동리 543-1,4891,126.129745,34.750196,김재호
경상북도,성주군,월항초등학교 운동장,경상북도 성주군 월항면 안포리 1151,1267,128.313411,35.948735,도낙현
경상북도,김천시,농소초등학교,경상북도 김천시 농소면 월곡리 696,6448,128.171743,36.105332,이창미
경상북도,김천시,신일초등학교,경상북도 김천시 신음동   506-2,6554,128.121043,36.143367,김응일
경상북도,김천시,김천동부초등학교,경상북도 김천시 지좌동   730-1,6708,128.138477,36.118607,김태성
경상북도,영천시,임고초등학교 운동장,경상북도 영천시 임고면 양항리 638,8000,128.973014,36.021235,최필순
경상북도,영천시,영동고등학교 운동장,경상북도 영천시 야사동   393,15651,128.946097,35.978302,김증환
경상북도,영천시,성남여중고 운동장,경상북도 영천시 도동   213-1,4500,128.93218,35.948828,성남여중고교장
전라남도,영광군,불갑초등학교,전라남도 영광군 불갑면 쌍운리 404,9617,126.50773,35.211217,노춘미
전라남도,목포시,동초등학교 운동장,전라남도 목포시 산정동   270-1,6500,126.387518,34.809422,
전라남도,목포시,항도여자중학교 운동장,전라남도 목포시 상동   327,3962,126.411246,34.816241,
경기도,안산시,안산원곡초등학교 운동장,경기도 안산시 단원구 원곡동   821,11806,126.79588,37.329156,
전라남도,목포시,옥암초등학교 운동장,전라남도 목포시 옥암동   1270,2654,126.452818,34.811227,
경상북도,청송군,이전초등학교 운동장,경상북도 청송군 부동면 이전리 1176-1,3477,129.15484,36.357518,금재혁
경기도,안산시,선일중학교 운동장,경기도 안산시 단원구 선부동   799-5,4217,126.803846,37.335515,
경상북도,경주시,계림중학교 운동장,경상북도 경주시 황성동   469-8,9426,129.21396,35.863851,
경상북도,경주시,천북초등학교 물천분교 운동장,경상북도 경주시 천북면 물천리 624-1,1252,129.281959,35.868961,
경상북도,경주시,대현초등학교 운동장,경상북도 경주시 산내면 대현리 3191-2,2492,129.057645,35.728961,
경상북도,구미시,무을초등학교 운동장,경상북도 구미시 무을면 송삼리 748-1,6375,128.197388,36.263979,송무근
경상북도,구미시,선주고등학교 운동장,경상북도 구미시 봉곡동   7,11995,128.312027,36.1416,김미서
경상북도,구미시,형곡고등학교 운동장,경상북도 구미시 형곡동   778-1,3895,128.338432,36.102033,김경식
경상북도,구미시,도개초등학교 운동장,경상북도 구미시 도개면 궁기리 748-6,2066,128.331127,36.300582,임경순
인천광역시,옹진군,덕적초중고등학교 운동장,인천광역시 옹진군 덕적면 진리 136,2906,126.147531,37.225489,전동명
인천광역시,옹진군,영흥초운동장,인천광역시 옹진군 영흥면 내리 237,5040,126.46765,37.254224,김선주
경상북도,경주시,대신어린이공원,경상북도 경주시 용강동   1350,1770,129.222069,35.861482,
경상북도,문경시,가은초등학교 운동장,경상북도 문경시 가은읍 왕능리 292-0,5228,128.062869,36.643158,
경상북도,문경시,영강체육공원,경상북도 문경시 흥덕동   75-1,28952,128.212609,36.602605,
경상북도,성주군,성주중앙초등학교 운동장,경상북도 성주군 성주읍 경산리 718-34,14521,128.287078,35.916498,김진철
경상북도,성주군,가천초등학교무학분교 운동장,경상북도 성주군 금수면 무학리 1410,4458,128.097154,35.925966,진용훈
경상북도,의성군,의성청학마을,경상북도 의성군 신평면 중율리 150,8348,128.527943,36.484517,오진환
전라남도,함평군,함평골프고등학교,전라남도 함평군 학교면 사거리 460-0,8059,126.535688,35.026666,
전라남도,영암군,미암초등학교 운동장,전라남도 영암군 미암면 선황리 1190-1,2500,126.574012,34.699941,
경상북도,구미시,비산초등학교 운동장,경상북도 구미시 공단동   114-1,4121,128.374767,36.118779,고지훈
대구광역시,달서구,성서공업지역 주변 완충녹지,대구광역시 달서구 갈산동   976 외    ,7600,128.508032,35.849142,이곡1동 신지훈
대구광역시,달서구,배실공원,대구광역시 달서구 이곡동   260,29556,128.505178,35.862236,이곡2동 하순근
대구광역시,달서구,배꽃공원,대구광역시 달서구 이곡동   1184-5    ,1574,128.501889,35.85969,이곡2동 하순근
대구광역시,달서구,와룡(위)공원,대구광역시 달서구 이곡동   1189      ,18795,128.500637,35.85812,이곡2동 하순근
대구광역시,달서구,와룡(아랫)공원,대구광역시 달서구 이곡동   1191-2    ,19600,128.5006,35.856311,이곡2동 하순근
대구광역시,달서구,샛별공원,대구광역시 달서구 이곡동   1189-3    ,1501,128.504332,35.857553,이곡2동 하순근
대구광역시,달서구,햇님공원,대구광역시 달서구 이곡동   1192-1    ,1500,128.504719,35.856873,이곡2동 하순근
대구광역시,달서구,사령봉어린이공원,대구광역시 달서구 이곡동   1216      ,1500,128.503146,35.852678,이곡2동 하순근
대구광역시,달서구,늘푸른공원,대구광역시 달서구 이곡동   1314-2    ,1500,128.504605,35.859964,이곡2동 하순근
대구광역시,달서구,계골산공원,대구광역시 달서구 신당동   1683      ,1501,128.499191,35.860718,신당동 심원철
대구광역시,달서구,돌산공원,대구광역시 달서구 신당동   1716      ,1500,128.493511,35.857051,
대구광역시,달서구,신당공원,대구광역시 달서구 신당동   1759-1    ,2030,128.498974,35.858108,신당동 심원철
대구광역시,달서구,오정공원,대구광역시 달서구 신당동   1778      ,1531,128.496394,35.856293,신당동 심원철
대구광역시,달서구,점터공원,대구광역시 달서구 신당동   1801      ,1525,128.493831,35.854488,신당동 심원철
대구광역시,달서구,갈뫼공원,대구광역시 달서구 신당동   1834-5    ,1682,128.494179,35.85218,신당동 심원철
대구광역시,달서구,앞돌공원,대구광역시 달서구 신당동   1844-1    ,1500,128.497039,35.853104,신당동 심원철
대구광역시,달서구,청록공원,대구광역시 달서구 신당동   1846-2    ,1500,128.497052,35.853781,신당동 심원철
대구광역시,달서구,은하수공원,대구광역시 달서구 호산동   357,1506,128.487079,35.85118,
대구광역시,달서구,미리내공원,대구광역시 달서구 호산동   368-1,1488,128.483557,35.851404,
대구광역시,달서구,강창공원,대구광역시 달서구 호산동   349       ,15180,128.480122,35.852199,
대구광역시,달서구,호림공원,대구광역시 달서구 호산동   714       ,12135,128.488918,35.842526,
인천광역시,옹진군,대청중고등학교 운동장,인천광역시 옹진군 대청면 대청리 1143-2,3728,124.697146,37.832302,강태철
경상북도,영덕군,병곡면 고래불휴게소 앞 주차장,경상북도 영덕군 병곡면 백석리 204,1273,129.410438,36.623227,안전재난건설과 자연재난담당 이수현
대구광역시,달서구,호산공원,대구광역시 달서구 호산동   357-60     ,24195,128.483938,35.848894,
대구광역시,달서구,강수골어린이공원,대구광역시 달서구 월성동   364-3     ,2800,128.534469,35.827246,
대구광역시,달서구,송일어린이공원,대구광역시 달서구 월성동   500-1     ,1786,128.532547,35.824197,
대구광역시,달서구,조암공원,대구광역시 달서구 월성동   739       ,9977,128.524878,35.827685,
대구광역시,달서구,선돌공원,대구광역시 달서구 월암동   431,13200,128.516658,35.823273,
대구광역시,달서구,마을마당공원,대구광역시 달서구 월성동   611-2     ,7287,128.526983,35.823857,
대구광역시,달서구,한샘공원,대구광역시 달서구 대천동   353-1,8870,128.518406,35.819661,
대구광역시,달서구,월명공원,대구광역시 달서구 월성동   87,9643,128.528997,35.828029,
대구광역시,달서구,감천리어린이공원,대구광역시 달서구 월성동   86,2342,128.528974,35.829303,
경상북도,경주시,감포관광단지 주차장,경상북도 경주시 감포읍 대본리 1221-0,27538,129.492809,35.763217,
경상북도,상주시,외서초등학교 운동장,경상북도 상주시 외서면 가곡리 109,4000,128.107602,36.47991,이현일
경상북도,상주시,상주초등학교 운동장,경상북도 상주시 서문동   131-1,1601,128.156901,36.416362,윤희영
경상북도,상주시,복룡동 시민문화공원,경상북도 상주시 복룡동   342-7,28000,128.170035,36.418034,최은주
경상북도,봉화군,봉화중고등학교,경상북도 봉화군 봉화읍 삼계리 40,4704,128.739725,36.895243,
전라남도,보성군,조성초등학교 운동장,전라남도 보성군 조성면 조성리 683-1,8668,127.248366,34.809617,
전라남도,곡성군,동악체육공원,전라남도 곡성군 곡성읍 교촌리 47,10476,127.284938,35.282629,이국현
경상북도,문경시,문창고등학교 운동장,경상북도 문경시 흥덕동   716-0,8891,128.200204,36.60273,
경상북도,의성군,단밀초등학교운동장,경상북도 의성군 단밀면 속암리 181,2493,128.380308,36.37574,조상원
전라남도,신안군,흑산초등학교 홍도분교,전라남도 신안군 흑산면 홍도리 95-2,2174,125.192369,34.685494,이웅
경상북도,성주군,가천중고등학교 운동장,경상북도 성주군 가천면 창천리 861,7200,128.159965,35.885764,김동준
경상북도,김천시,대덕초등학교,경상북도 김천시 대덕면 관기리 183-1,3825,127.971644,35.917695,임연정
전라남도,화순군,한천초등학교 운동장,전라남도 화순군 한천면 한계리 183-0,11921,127.004052,34.979077,김지아
전라남도,화순군,도곡초등학교 운동장,전라남도 화순군 도곡면 천암리 191-0,16420,126.908672,35.013104,김지아
전라남도,화순군,천태초등학교 운동장,전라남도 화순군 도암면 원천리 252-0,13550,126.893438,34.945356,김지아
대구광역시,달서구,연왕어린이공원,대구광역시 달서구 월성동   270-2,1598,128.532428,35.834941,
대구광역시,달서구,사랑어린이공원,대구광역시 달서구 월성동   277,1646,128.530212,35.830484,
대구광역시,달서구,효성어린이공원,대구광역시 달서구 월성동   273,1910,128.530302,35.83261,
대구광역시,달서구,평화어린이공원,대구광역시 달서구 월성동   277-1,1749,128.528875,35.830185,
대구광역시,달서구,옹달샘어린이공원,대구광역시 달서구 월성동   273,1918,128.530302,35.83261,
대구광역시,달서구,학산어린이공원,대구광역시 달서구 월성동   84,1500,128.527357,35.832887,
대구광역시,달서구,창공어린이공원,대구광역시 달서구 월성동   270,1661,128.532353,35.833525,
대구광역시,달서구,미성어린이공원,대구광역시 달서구 월성동   270,2967,128.532353,35.833525,
대구광역시,달서구,진천공원,대구광역시 달서구 진천동   223-31      ,1836,128.529271,35.814221,
대구광역시,달서구,동백공원,대구광역시 달서구 진천동   623-12      ,1817,128.522946,35.812775,
대구광역시,달서구,무궁화공원,대구광역시 달서구 진천동   812         ,1618,128.532865,35.812825,
대구광역시,달서구,진달래공원,대구광역시 달서구 진천동   832-3       ,1504,128.53194,35.810556,
대구광역시,달서구,장미공원,대구광역시 달서구 진천동   780-1외     ,3453,128.518256,35.810895,
대구광역시,달서구,태양공원,대구광역시 달서구 상인동   1501-1      ,1913,128.541677,35.817815,
대구광역시,달서구,보배공원,대구광역시 달서구 상인동   1515-1      ,1800,128.542326,35.816285,상인1동 송현웅
대구광역시,달서구,영광공원,대구광역시 달서구 상인동   1517-1      ,1755,128.543384,35.818349,
대구광역시,달서구,한빛공원,대구광역시 달서구 상인동   1522-1      ,1500,128.546745,35.815188,
대구광역시,달서구,동심공원,대구광역시 달서구 상인동   1523-1      ,1500,128.544349,35.814267,상인1동 송현웅
대구광역시,달서구,월곡역사공원,대구광역시 달서구 상인동   1530        ,9739,128.545207,35.81809,
인천광역시,옹진군,십리포주차장,인천광역시 옹진군 영흥면 내리 724-91,3220,126.486376,37.281448,최은식
인천광역시,옹진군,십리포주차장,인천광역시 옹진군 영흥면 내리 724-43,2590,126.483277,37.280271,최은식
경상북도,안동시,일직초등학교 운동장,경상북도 안동시 일직면 원호리 116,5131,128.657007,36.483796,
경상북도,상주시,함창고등학교 운동장,경상북도 상주시 함창읍 증촌리 242,4000,128.174665,36.571012,김성환
경상북도,상주시,청리중학교 운동장,경상북도 상주시 청리면 청하리 954-5,5174,128.12837,36.33107,한지윤
경상북도,상주시,화동초등학교 운동장,경상북도 상주시 화동면 이소리 490,15605,127.951038,36.391967,윤영덕
경상북도,김천시,감천초등학교,경상북도 김천시 감천면 도평리 514,6917,128.126116,36.06517,김중헌
경상북도,김천시,개령초등학교,경상북도 김천시 개령면 동부리 330,4281,128.187058,36.16798,이교원
전라남도,무안군,무안고등학교 운동장,전라남도 무안군 무안읍 성남리 1000-0,2880,126.466905,34.982095,김경(010-3645-1010)
전라남도,무안군,남악초등학교 운동장,전라남도 무안군 삼향읍 남악리 1587-0,2600,126.474072,34.81243,전미소(010-9302-1898)
전라남도,강진군,강진군 축구전용구장(다산구장),전라남도 강진군 군동면 호계리 1091,28560,126.780899,34.648467,윤근식
전라남도,강진군,강진군 축구전용구장(하멜구장),전라남도 강진군 강진읍 교촌리 211-1,8000,126.780383,34.6448,윤근식
경상북도,성주군,성밖숲 공터,경상북도 성주군 성주읍 경산리 446-1,38944,128.279726,35.916163,김진철
전라남도,신안군,흑산초등학교,전라남도 신안군 흑산면 진리 477,2925,125.427243,34.684487,오창윤
전라남도,신안군,신의중학교,전라남도 신안군 신의면 상태동리 420-1,5000,126.079849,34.590443,강성일
경상북도,성주군,금수문화예술마을 공터,경상북도 성주군 금수면 광산리 125,6650,128.177534,35.918609,박인준
경상북도,김천시,아포초등학교,경상북도 김천시 아포읍 국사리 571,9120,128.245424,36.159769,민철기
전라남도,함평군,손불중학교,전라남도 함평군 손불면 대전리 636-0,5267,126.427827,35.144054,
전라남도,화순군,이서초등학교 운동장,전라남도 화순군 이서면 영평리 282-1,16000,127.044468,35.117385,김지아
경상북도,예천군,2호 일반광장,경상북도 예천군 호명면 산합리 1148,2860,128.47558,36.57632,안전재난과장
경상북도,영천시,최무선과학관 주차장,경상북도 영천시 금호읍 원기리 277,17613,128.881272,35.907784,김동하
전라남도,영광군,국민체육센터,전라남도 영광군 영광읍 단주리 673,14498,126.496273,35.288662,심병열
전라남도,영광군,염산초등학교,전라남도 영광군 염산면 봉남리 195-0,9814,126.366862,35.220616,이미리
전라남도,목포시,이로초등학교 운동장,전라남도 목포시 용해동   240-2,4821,126.406656,34.8048,
전라남도,목포시,상동초등학교 운동장,전라남도 목포시 상동   364,2407,126.411891,34.813729,
전라남도,목포시,하당초등학교 운동장,전라남도 목포시 상동   820,4560,126.419223,34.806291,
경상북도,칠곡군,장곡중학교 운동장,경상북도 칠곡군 석적읍 중리 246,6856,128.415085,36.073107,
경상북도,칠곡군,동명동부초등학교 운동장,경상북도 칠곡군 동명면 기성리 232-1,3000,128.593187,36.005811,
경기도,안산시,원곡중학교 운동장,경기도 안산시 단원구 원곡동   936-1,6299,126.800815,37.331539,
전라남도,보성군,벌교고등학교 운동장,전라남도 보성군 벌교읍 장좌리 511,3973,127.342776,34.833927,
전라남도,장성군,장성남중학교,전라남도 장성군 남면 분향리 335,10070,126.811464,35.24327,장성남중학교장
인천광역시,서구,대평공원,인천광역시 서구 연희동   733-3,2171,126.670208,37.54906,서구청장
경상북도,경주시,북군공영주차장,경상북도 경주시 북군동   249-4,3003,129.264045,35.851962,
경상북도,경주시,불국사 주차장,경상북도 경주시 진현동   15-1,14347,129.328687,35.786488,
인천광역시,서구,가좌근린공원,인천광역시 서구 가좌동   219-0,6257,126.680686,37.488296,서구청장
인천광역시,서구,서구국민체육센터(상동근린공원),인천광역시 서구 검암동   496,8733,126.677761,37.566541,서구청장
전라남도,구례군,토지초등학교 운동장,전라남도 구례군 토지면 구산리 137-1,6400,127.527855,35.196965,
인천광역시,계양구,작전초등학교 운동장,인천광역시 계양구 작전동   42-5,3476,126.728737,37.534644,학교장
전라남도,여수시,거북선공원,전라남도 여수시 학동   162-0,48630,127.667872,34.760622,김혜영
경기도,오산시,성산초등학교,경기도 오산시 오산동   524-1,4760,127.066119,37.149941,류민영
경상북도,의성군,의성중학교운동장,경상북도 의성군 의성읍 도동리 643,10185,128.701055,36.341375,054-830-5032
경상북도,포항시,영흥초등학교 운동장,경상북도 포항시 북구 죽도동   26-2,6600,129.368179,36.031068,조상수
경상북도,의성군,옥전초등학교운동장,경상북도 의성군 옥산면 정자리 102,4390,128.807374,36.393855,054-830-5086
제주특별자치도,서귀포시,남주중학교 운동장,제주특별자치도 서귀포시 동홍동   1907,1418,126.564511,33.275606,
제주특별자치도,서귀포시,삼성여고 운동장,제주특별자치도 서귀포시 토평동   893,1974,126.58408,33.254549,
제주특별자치도,서귀포시,서귀중앙초등학교 운동장,제주특별자치도 서귀포시 서귀동   283-3,8982,126.563757,33.252824,
제주특별자치도,서귀포시,온평초등학교 운동장,제주특별자치도 서귀포시 성산읍 온평리 1577,8518,126.896711,33.408163,
경기도,안산시,안산광덕초등학교 운동장,경기도 안산시 상록구 월피동   523,6611,126.843891,37.332897,
경상북도,경주시,경주공업고등학교 운동장,경상북도 경주시 사정동   70,23395,129.205869,35.835956,
경상북도,경주시,아화초등학교 운동장,경상북도 경주시 서면 아화리 282,3120,129.053168,35.892373,
경상북도,경주시,양남중학교 운동장,경상북도 경주시 양남면 하서리 651,3160,129.460503,35.67412,
경상북도,경주시,나산초등학교 운동장,경상북도 경주시 양남면 읍천리 17,6639,129.470173,35.697917,
경상북도,경주시,경주화랑고등학교 운동장,경상북도 경주시 양북면 장항리 333,4391,129.387573,35.794245,
경상북도,경주시,석계초등학교 운동장,경상북도 경주시 외동읍 석계리 91,1426,129.309456,35.678554,
경상북도,경주시,연안초등학교 운동장,경상북도 경주시 외동읍 연안리 777-42,2068,129.318912,35.727696,
경상북도,경주시,모량초등학교 운동장,경상북도 경주시 건천읍 모량리 612-14,1679,129.130654,35.823802,
경상북도,경주시,건천초등학교 운동장,경상북도 경주시 건천읍 천포리 1122-0,5176,129.095945,35.843235,
경상북도,경주시,안강중학교 운동장,경상북도 경주시 안강읍 안강리 233-7,13221,129.230086,35.992195,
경상북도,경주시,안강초등학교 운동장,경상북도 경주시 안강읍 안강리 398-1,3450,129.229105,35.990466,
경상북도,경주시,안강여자중학교 운동장,경상북도 경주시 안강읍 산대리 1859,11715,129.211485,35.992975,
경상북도,경주시,사방초등학교 운동장,경상북도 경주시 안강읍 사방리 646,1669,129.225977,35.938528,
경상북도,경주시,감포중학교 운동장,경상북도 경주시 감포읍 오류리 478-2,4710,129.506743,35.810886,
인천광역시,서구,가정초등학교 운동장,인천광역시 서구 가좌동   395-4,3498,126.688497,37.491364,학교장
인천광역시,서구,백석초등학교 운동장,인천광역시 서구 당하동   1084-1,2122,126.671985,37.589531,학교장
경상북도,경주시,감포초등학교 운동장,경상북도 경주시 감포읍 감포리 12,5283,129.501963,35.809938,
경상북도,경주시,양동초등학교 운동장,경상북도 경주시 강동면 양동리 65-1,2243,129.253037,35.997733,
경상북도,경주시,내남(덕천)생활체육공원 축구장,경상북도 경주시 내남면 덕천리 897-3,8064,129.176358,35.746159,
경상남도,사천시,초전공원,경상남도 사천시 사남면 방지리 652,72168,128.061994,35.060887,
인천광역시,계양구,병방초등학교 운동장,인천광역시 계양구 병방동   432-1,2926,126.741053,37.546694,학교장
전라남도,광양시,환경사업소 운동장,전라남도 광양시 중동   308-124,52280,127.690741,34.929177,하수처리과장
경기도,오산시,성호초등학교,경기도 오산시 오산동   862-1,9091,127.070978,37.150192,박성자
경상남도,함양군,안의초등학교 운동장,경상남도 함양군 안의면 당본리 203,6344,127.809306,35.629391,김주안
경상남도,함양군,서하초등학교 운동장,경상남도 함양군 서하면 송계리 869,2000,127.698396,35.648889,김주안
경상북도,포항시,흥해공업고등학교 운동장,경상북도 포항시 북구 흥해읍 옥성리 376-0,5200,129.338374,36.106656,조상수
경상북도,포항시,포항항도중학교 운동장,경상북도 포항시 북구 죽도동   655-9,4500,129.355862,36.018698,조상수
경상북도,포항시,장량초등학교 운동장,경상북도 포항시 북구 장성동   441-3,4200,129.380358,36.071461,조상수
인천광역시,남동구,성리초등학교  운동장,인천광역시 남동구 구월동   446-1,6540,126.710021,37.445641,학교장
인천광역시,남동구,주원초등학교 운동장,인천광역시 남동구 간석동   379-1,3788,126.699851,37.464775,학교장
인천광역시,남동구,만수중학교 운동장,인천광역시 남동구 만수동   48,3150,126.736836,37.454629,학교장
인천광역시,부평구,마장초등학교 운동장,인천광역시 부평구 청천동   336-10,2340,126.709434,37.506609,마장초등학교장
경기도,안산시,단원중학교 운동장,경기도 안산시 단원구 고잔동   431-4,3957,126.822589,37.327486,
경기도,안산시,중앙중학교 운동장,경기도 안산시 단원구 고잔동   673-2,14236,126.83975,37.321658,
인천광역시,서구,왕길근린공원,인천광역시 서구 왕길동   649-4,8180,126.651487,37.600536,서구청장
경상북도,경주시,황성초등학교 운동장,경상북도 경주시 용강동   1151-1,8938,129.223127,35.859616,
경상북도,경주시,용황초등학교 운동장,경상북도 경주시 황성동   325-1,5907,129.220757,35.865061,
경상북도,경주시,산내중학교 운동장,경상북도 경주시 산내면 의곡리 70-65,2968,129.046496,35.75239,
경상북도,경주시,괘릉초등학교 운동장,경상북도 경주시 외동읍 괘릉리 595,1662,129.322192,35.759968,
경상북도,경주시,영지초등학교 운동장,경상북도 경주시 외동읍 방어리 634,1116,129.294981,35.753802,
경상북도,경주시,(구)안강북부초등학교 운동장,경상북도 경주시 안강읍 육통리 543-3,2004,129.225556,36.021436,
경상북도,경주시,용장 공영주차장,경상북도 경주시 내남면 용장리 429-1,4230,129.205601,35.776439,
경상북도,경주시,천마총 주차장,경상북도 경주시 황남동   89-2,5000,129.215269,35.835634,
경기도,파주시,능안초등학교 운동장,경기도 파주시 조리읍 능안리 53-6,2822,126.792743,37.740239,
경기도,파주시,파주대원초등학교 운동장,경기도 파주시 조리읍 대원리 203,2005,126.819566,37.727187,
전라남도,강진군,청람중학교 운동장,전라남도 강진군 군동면 라천리 161,2100,126.819865,34.649115,박종태
전라남도,강진군,강진여자중학교 운동장,전라남도 강진군 강진읍 서성리 292,1500,126.760526,34.639913,최종란
전라남도,신안군,암태중학교,전라남도 신안군 암태면 단고리 104,15291,126.112789,34.829653,박환식
경상북도,영천시,화북면사무소 주차장,경상북도 영천시 화북면 자천리 1470,875,128.919356,36.108231,화북면장
경상북도,영천시,북안면 반정3리 공원,경상북도 영천시 북안면 반정리 158,2900,129.000069,35.929875,서현원
경상북도,영천시,우로지생태공원,경상북도 영천시 망정동   444-14,13847,128.95763,35.983422,백종기
경상북도,영천시,영천초등학교 운동장,경상북도 영천시 금노동   504-1,1500,128.932235,35.961426,윤수탁
경상북도,영천시,영천영화초등학교 운동장,경상북도 영천시 화룡동   196-1,20000,128.921959,35.96529,김영숙
전라남도,영광군,대마초등학교,전라남도 영광군 대마면 월산리 375,18297,126.581472,35.302696,신동환
경상북도,청송군,청송군민 운동장,경상북도 청송군 청송읍 월막리 142,15547,129.061822,36.432416,김기욱
전라남도,목포시,목포공고 운동장,전라남도 목포시 용당동   171-11,10701,126.403821,34.795211,
전라남도,목포시,남초등학교 운동장,전라남도 목포시 호남동   567,8781,126.390928,34.791158,
경상북도,청송군,부남초등학교 운동장,경상북도 청송군 부남면 하속리 97,5757,129.097805,36.313585,최병철
경상북도,청송군,안덕초등학교 운동장,경상북도 청송군 안덕면 명당리 503-1,13165,128.960617,36.293057,이학진
경상북도,청송군,파천초등학교 운동장,경상북도 청송군 파천면 관리 774-1,4700,129.031951,36.44493,권명천
경상북도,구미시,서당공원,경상북도 구미시 선산읍 이문리 139-3,1500,128.294414,36.239278,
경상북도,구미시,다솜공원,경상북도 구미시 구평동   464-2,2223,128.441119,36.09124,
경상북도,구미시,구미여자고등학교 운동장,경상북도 구미시 도량동   682,10082,128.332287,36.14442,송후덕
경상북도,구미시,오양공원,경상북도 구미시 임은동   444-5,2100,128.359688,36.088681,
경상북도,구미시,애린공원,경상북도 구미시 상모동   45,1723,128.356098,36.090716,
경상북도,구미시,정수초등학교 운동장,경상북도 구미시 상모동   114-5,5400,128.351549,36.090294,김현중
충청북도,옥천군,군남초등학교 운동장,충청북도 옥천군 옥천읍 서대리 279,4700,127.581675,36.277609,
경상북도,상주시,상주남부초등학교 운동장,경상북도 상주시 지천동   500-1,1200,128.150096,36.363113,김천국
전라남도,곡성군,고달초등학교 운동장,전라남도 곡성군 고달면 목동리 730,4761,127.341844,35.296317,오동현
전라남도,무안군,운남초등학교 운동장,전라남도 무안군 운남면 연리 391-1,2400,126.337772,34.958831,김태일(010-7608-0518)
전라남도,함평군,대동향교초등학교,전라남도 함평군 대동면 향교리 985-1,5486,126.53232,35.067779,
전라남도,목포시,연동초 운동장,전라남도 목포시 산정동   1080-4,10046,126.394421,34.796324,
전라남도,목포시,삼학초등학교 운동장,전라남도 목포시 산정동   1367,11568,126.400848,34.790934,
전라남도,목포시,목포시청 주차장,전라남도 목포시 용당동   1188-2,3837,126.39184,34.81146,
전라남도,목포시,유경주차장,전라남도 목포시 보광동2가   2,188,126.388091,34.787659,
경기도,안산시,안산화정초등학교 운동장,경기도 안산시 단원구 선부동   1100,6960,126.817401,37.345569,
전라남도,목포시,하당중학교 운동장,전라남도 목포시 옥암동   963,2600,126.428756,34.810225,
경상북도,칠곡군,칠곡군청 공용주차장,경상북도 칠곡군 왜관읍 왜관리 216-102,2500,128.400866,35.994625,
경상북도,칠곡군,왜관달오체육시설 공터,경상북도 칠곡군 왜관읍 왜관리 1282,11000,128.394881,35.973059,
경상북도,칠곡군,북삼고등학교 운동장,경상북도 칠곡군 북삼읍 인평리 694-1,5694,128.334316,36.071512,
경기도,안산시,안산문화광장,경기도 안산시 단원구 고잔동   800-0,22108,126.830628,37.318347,
경상북도,경주시,제일초등학교 운동장,경상북도 경주시 안강읍 양월리 1146-4,7931,129.220859,35.993817,
경기도,파주시,세경고등학교 운동장,경기도 파주시 파주읍 연풍리 445-0,4050,126.829766,37.832247,
전라남도,영암군,서호중학교 운동장,전라남도 영암군 서호면 장천리 483,5000,126.584386,34.755954,
경상북도,칠곡군,석적초등학교 운동장,경상북도 칠곡군 석적읍 남율리 1465,4470,128.409932,36.066836,
경상북도,칠곡군,신동초등학교 운동장,경상북도 칠곡군 지천면 신리 396,5600,128.490131,35.9568,
경상북도,칠곡군,약목고등학교 운동장,경상북도 칠곡군 약목면 무림리 1111,6151,128.371438,36.027443,
경상북도,구미시,문장초등학교 운동장,경상북도 구미시 고아읍 원호리 산38-0,4420,128.331787,36.148853,서채환
경상북도,구미시,지산초등학교 운동장,경상북도 구미시 지산동   177-1,2000,128.344504,36.140597,박제원
경상북도,청송군,안덕중학교 운동장,경상북도 청송군 안덕면 명당리 360-1,6957,128.957079,36.289926,이학진
경상북도,구미시,형남초등학교 운동장,경상북도 구미시 형곡동   807-4,13977,128.334971,36.101111,김소영
경상북도,구미시,선주초등학교 운동장,경상북도 구미시 봉곡동   287,4422,128.311379,36.150812,이용윤
경상북도,구미시,경구고등학교 운동장,경상북도 구미시 봉곡동   279,6885,128.30709,36.148562,이상탁
전라남도,순천시,버드내1공원,전라남도 순천시 해룡면 상삼리 690,10000,127.527838,34.946474,
인천광역시,서구,장모루근린공원,인천광역시 서구 검암동   594-2,3993,126.675499,37.567734,서구청장
인천광역시,서구,불로지구4호공원,인천광역시 서구 불로동   793-2,1881,126.685773,37.610503,종합건설본부
경상북도,예천군,예천동부초등학교운동장,경상북도 예천군 예천읍 백전리 88,5590,128.459201,36.661319,안전재난과장
경상북도,영천시,면민복지회관 앞마당,경상북도 영천시 화산면 유성리 1377-1,662,128.852017,36.019362,화산면장
경상북도,영천시,오리장림 다목적광장,경상북도 영천시 화북면 자천리 1266,2160,128.914135,36.102601,전동하
경상북도,영천시,농산물공동집하장 주차장,경상북도 영천시 임고면 양평리 313-0,7989,128.986454,36.02452,박점암
경상북도,영천시,임고강변공원,경상북도 영천시 임고면 덕연리 143,20000,128.995863,36.047701,정연돌
경상북도,영천시,단포초등학교 운동장,경상북도 영천시 고경면 단포리 160,7989,128.975013,35.980875,이정찬
경상북도,영천시,영천고등학교 운동장,경상북도 영천시 야사동   178-1,15120,128.9448,35.972858,윤수탁
경상북도,영천시,영천역광장,경상북도 영천시 완산동   891-2,2500,128.939468,35.959654,영천역장
경상북도,영천시,남부동복지회관 주차장,경상북도 영천시 도동   178-10,840,128.935717,35.941622,남부동장
전라남도,목포시,제일중학교 운동장,전라남도 목포시 용해동   170-5,14088,126.407647,34.796175,
전라남도,목포시,임성초등학교 운동장,전라남도 목포시 석현동   96-1,5334,126.436103,34.824808,
전라남도,목포시,청호초등학교 운동장,전라남도 목포시 옥암동   966,3001,126.427714,34.809732,
전라남도,목포시,부영초등학교 운동장,전라남도 목포시 옥암동   1024,2819,126.433504,34.803315,
경상북도,칠곡군,가산초등학교 운동장,경상북도 칠곡군 가산면 천평리 287-2,3250,128.539642,36.079668,
경상북도,구미시,남계초등학교 운동장,경상북도 구미시 고아읍 봉한리 438-2,3250,128.349171,36.181516,김미화
경상북도,안동시,서후초등학교 운동장,경상북도 안동시 서후면 성곡리 115-3,6247,128.663128,36.618046,
경상북도,안동시,임하초등학교 운동장,경상북도 안동시 임하면 신덕리 467,5164,128.827799,36.526204,
경상북도,구미시,구미전자공업고등학교 운동장,경상북도 구미시 임수동   278,25209,128.405365,36.115866,김경언
경상북도,구미시,늘푸른 공원,경상북도 구미시 사곡동   692,1504,128.354335,36.093563,
경상북도,구미시,외골공원,경상북도 구미시 고아읍 문성리 1212,2625,128.345722,36.164131,
경상북도,구미시,퇴경공원,경상북도 구미시 고아읍 원호리 436,1583,128.329462,36.150909,
경상북도,구미시,도봉초등학교 운동장,경상북도 구미시 도량동   221,4097,128.317169,36.141742,박규호
전라남도,장성군,성산초등학교,전라남도 장성군 장성읍 성산리 450,6739,126.805838,35.326054,성산초등학교장
경상북도,경주시,양남초등학교 운동장,경상북도 경주시 양남면 하서리 566,1970,129.461014,35.675017,
경상북도,경주시,무산중학교 운동장,경상북도 경주시 건천읍 천포리 636,3253,129.096986,35.844748,
경상북도,김천시,위량초등학교,경상북도 김천시 감문면 금라리 725-1,5454,128.160725,36.201798,이경동
전라남도,보성군,벌교초등학교 운동장,전라남도 보성군 벌교읍 벌교리 637,10897,127.342433,34.843783,
전라남도,곡성군,죽곡초등학교 운동장,전라남도 곡성군 죽곡면 태평리 614,9801,127.318246,35.153327,김선수
전라남도,신안군,비금중학교,전라남도 신안군 비금면 덕산리 714,3960,125.924082,34.75981,김영철
인천광역시,서구,샘내공원,인천광역시 서구 심곡동   258-6,2176,126.672999,37.541257,서구청장
경상북도,예천군,은풍초등학교운동장,경상북도 예천군 은풍면 우곡리 214-0,11640,128.442258,36.747419,안전재난과장
경상북도,영천시,청통면사무소 주차장,경상북도 영천시 청통면 치일리 14-1,3289,128.823035,35.9921,최주연
경상북도,칠곡군,숭산초등학교 운동장,경상북도 칠곡군 북삼읍 보손리 264-1,2191,128.314567,36.053662,
경상북도,칠곡군,석적읍사무소 주차장,경상북도 칠곡군 석적읍 남율리 895,2500,128.400859,36.066551,
경상북도,칠곡군,가산면민운동장,경상북도 칠곡군 가산면 송학리 268,5200,128.518842,36.10317,
